Time,header.seq,header.stamp.secs,header.stamp.nsecs,header.frame_id,vector.x,vector.y,vector.z
1669803320.423328,250,1669803320,423047544,imu_link,-1.4349814653396609,0.49879112839698797,9.674213409423828
1669803320.4285803,251,1669803320,428319850,imu_link,-1.426545023918152,0.5465720891952515,9.681358337402344
1669803320.4327502,252,1669803320,432516182,imu_link,-1.4368960857391357,0.5552459359169007,9.700562477111818
1669803320.4384768,253,1669803320,437836404,imu_link,-1.4542599916458132,0.5366204977035522,9.698978424072266
1669803320.4441562,254,1669803320,443482743,imu_link,-1.4698888063430788,0.528282880783081,9.693774223327638
1669803320.4481254,255,1669803320,447699934,imu_link,-1.4914499521255495,0.523576021194458,9.684062004089357
1669803320.4540465,256,1669803320,452976239,imu_link,-1.5179854631423952,0.4511227011680603,9.698599815368654
1669803320.4588366,257,1669803320,458430711,imu_link,-1.4999005794525146,0.392985612154007,9.68944835662842
1669803320.4631517,258,1669803320,462733537,imu_link,-1.4593085050582888,0.40049430727958685,9.684676170349123
1669803320.4683118,259,1669803320,467999850,imu_link,-1.4200594425201416,0.37448060512542725,9.708215713500977
1669803320.4736645,260,1669803320,473348057,imu_link,-1.4029551744461062,0.38109895586967474,9.691341400146484
1669803320.4778082,261,1669803320,477614563,imu_link,-1.4237499237060547,0.45080110430717474,9.64613151550293
1669803320.483106,262,1669803320,482844511,imu_link,-1.436446189880371,0.4611425697803498,9.672075271606445
1669803320.4883165,263,1669803320,488060029,imu_link,-1.4591263532638552,0.5019446611404419,9.657786369323732
1669803320.4934912,264,1669803320,493307538,imu_link,-1.4889513254165652,0.5499863624572754,9.621745109558107
1669803320.498257,265,1669803320,497714351,imu_link,-1.5082789659500124,0.5765713453292847,9.619443893432617
1669803320.5036688,266,1669803320,503067321,imu_link,-1.5058281421661377,0.5505142807960511,9.649866104125977
1669803320.5082831,267,1669803320,507601493,imu_link,-1.47726047039032,0.5117501616477967,9.603017807006836
1669803320.513842,268,1669803320,513017347,imu_link,-1.4662562608718874,0.48227509856224066,9.647544860839844
1669803320.5191486,269,1669803320,518395249,imu_link,-1.4420068264007568,0.4167596697807312,9.657488822937013
1669803320.5234587,270,1669803320,522854495,imu_link,-1.4642744064331055,0.4106677174568176,9.645383834838867
1669803320.5285966,271,1669803320,528154079,imu_link,-1.4826968908309939,0.4089117646217346,9.636614799499513
1669803320.5330453,272,1669803320,532616374,imu_link,-1.4682679176330566,0.36152225732803345,9.674906730651857
1669803320.5384808,273,1669803320,537955735,imu_link,-1.5143553018569949,0.39745542407035833,9.648274421691896
1669803320.5435355,274,1669803320,543233475,imu_link,-1.4794604778289795,0.41191950440406805,9.645938873291016
1669803320.5488923,275,1669803320,548568531,imu_link,-1.5035114288330078,0.45863249897956854,9.662105560302734
1669803320.5530593,276,1669803320,552779680,imu_link,-1.5116851329803467,0.4537498056888581,9.677963256835938
1669803320.5583029,277,1669803320,558058913,imu_link,-1.4742002487182617,0.4849745035171509,9.654051780700685
1669803320.5636783,278,1669803320,563397007,imu_link,-1.4322712421417236,0.48970976471900945,9.708947181701662
1669803320.567869,279,1669803320,567623260,imu_link,-1.4416637420654297,0.45688274502754217,9.704682350158693
1669803320.5731838,280,1669803320,572941785,imu_link,-1.4491239786148074,0.4525790810585022,9.702817916870117
1669803320.5791106,281,1669803320,578488945,imu_link,-1.4680006504058838,0.48020616173744207,9.694041252136232
1669803320.5833879,282,1669803320,582937693,imu_link,-1.5035754442214968,0.4301854372024536,9.703798294067383
1669803320.588692,283,1669803320,588322764,imu_link,-1.493268132209778,0.4440988302230835,9.689376831054688
1669803320.5932128,284,1669803320,592619719,imu_link,-1.4876980781555176,0.47566369175910955,9.690784454345703
1669803320.5982273,285,1669803320,597920017,imu_link,-1.4693384170532227,0.48145261406898504,9.698822975158693
1669803320.6036546,286,1669803320,603336259,imu_link,-1.4645617008209229,0.4862141013145447,9.689933776855469
1669803320.607842,287,1669803320,607598562,imu_link,-1.4746332168579102,0.5208347439765931,9.669361114501953
1669803320.613272,288,1669803320,612925466,imu_link,-1.4636358022689822,0.5355626344680786,9.665951728820803
1669803320.6185136,289,1669803320,618300572,imu_link,-1.4973232746124268,0.5314451456069946,9.666851043701172
1669803320.6227448,290,1669803320,622578485,imu_link,-1.4763174057006836,0.5404236912727357,9.655967712402344
1669803320.6279738,291,1669803320,627772828,imu_link,-1.451077938079834,0.5218637585639955,9.672843933105469
1669803320.633264,292,1669803320,632947148,imu_link,-1.4576830863952637,0.4708598852157593,9.686310768127443
1669803320.6384706,293,1669803320,638238939,imu_link,-1.45440673828125,0.46796905994415283,9.674319267272951
1669803320.6437414,294,1669803320,643468826,imu_link,-1.4722225666046143,0.4676852822303772,9.682776451110842
1669803320.6478882,295,1669803320,647646719,imu_link,-1.54101836681366,0.4456545114517212,9.713561058044435
1669803320.6531699,296,1669803320,652861860,imu_link,-1.5403481721878054,0.45941159129142767,9.682418823242188
1669803320.6582983,297,1669803320,658120538,imu_link,-1.5311259031295779,0.4544258713722229,9.673756599426271
1669803320.663759,298,1669803320,663437427,imu_link,-1.511677145957947,0.46092346310615545,9.699055671691896
1669803320.6684813,299,1669803320,667774940,imu_link,-1.4733312129974365,0.4681898355484009,9.690715789794922
1669803320.673741,300,1669803320,673091795,imu_link,-1.4532021284103396,0.5022672414779663,9.68533706665039
1669803320.6787438,301,1669803320,678367994,imu_link,-1.469994902610779,0.47784852981567383,9.711304664611818
1669803320.6840556,302,1669803320,683641830,imu_link,-1.471489667892456,0.4534749388694763,9.692388534545898
1669803320.6880474,303,1669803320,687817110,imu_link,-1.4641661643981934,0.456034779548645,9.667433738708498
1669803320.693383,304,1669803320,693091912,imu_link,-1.4747183322906494,0.45559182763099676,9.67466449737549
1669803320.6989236,305,1669803320,698404199,imu_link,-1.5053863525390625,0.4373143017292023,9.664050102233888
1669803320.703476,306,1669803320,702832636,imu_link,-1.4775830507278445,0.43573436141014105,9.65001964569092
1669803320.708628,307,1669803320,708177589,imu_link,-1.453832030296326,0.4225049614906311,9.660900115966797
1669803320.7140317,308,1669803320,713497530,imu_link,-1.4510688781738281,0.4290252923965454,9.676715850830078
1669803320.7180305,309,1669803320,717732275,imu_link,-1.4343746900558474,0.46025738120079046,9.647379875183107
1669803320.7232487,310,1669803320,722967355,imu_link,-1.4352011680603027,0.47551402449607855,9.660546302795412
1669803320.7284768,311,1669803320,728248595,imu_link,-1.4661729335784912,0.4351831078529358,9.714414596557617
1669803320.7337523,312,1669803320,733543888,imu_link,-1.4588394165039062,0.4252128899097443,9.688238143920898
1669803320.7379212,313,1669803320,737735159,imu_link,-1.4587651491165163,0.4547104239463806,9.684876441955568
1669803320.7430975,314,1669803320,742933135,imu_link,-1.486372709274292,0.43685767054557806,9.693181991577148
1669803320.7484941,315,1669803320,748169409,imu_link,-1.5230464935302734,0.4224521219730378,9.68929958343506
1669803320.753771,316,1669803320,753464758,imu_link,-1.4991285800933838,0.4300501644611359,9.69564723968506
1669803320.7578638,317,1669803320,757659025,imu_link,-1.4821952581405642,0.4017287492752075,9.683348655700685
1669803320.762982,318,1669803320,762801436,imu_link,-1.464120626449585,0.3936062455177307,9.687793731689453
1669803320.7683353,319,1669803320,768094658,imu_link,-1.4651641845703125,0.4360673427581787,9.662156105041506
1669803320.773556,320,1669803320,773377802,imu_link,-1.464632868766785,0.4540634751319885,9.685394287109375
1669803320.7777631,321,1669803320,777558496,imu_link,-1.48891818523407,0.4701753258705139,9.687182426452638
1669803320.7830677,322,1669803320,782888983,imu_link,-1.4784538745880127,0.49827966094017034,9.65762710571289
1669803320.7886105,323,1669803320,788276893,imu_link,-1.4395053386688232,0.5196616053581239,9.655771255493164
1669803320.7932167,324,1669803320,792753517,imu_link,-1.4599673748016357,0.49374961853027344,9.682940483093263
1669803320.7982972,325,1669803320,797928964,imu_link,-1.467365860939026,0.49842861294746404,9.659749031066896
1669803320.803344,326,1669803320,803216202,imu_link,-1.4797683954238894,0.5146201848983765,9.659804344177248
1669803320.8086362,327,1669803320,808485190,imu_link,-1.4535887241363525,0.45815426111221313,9.695159912109375
1669803320.8128555,328,1669803320,812697316,imu_link,-1.4592577219009402,0.4426243305206299,9.684646606445312
1669803320.8181841,329,1669803320,817921766,imu_link,-1.435827136039734,0.44383955001831055,9.669915199279787
1669803320.8233547,330,1669803320,823205268,imu_link,-1.460496187210083,0.4491842687129975,9.70501232147217
1669803320.829009,331,1669803320,828630773,imu_link,-1.5129910707473757,0.4327153861522675,9.712466239929201
1669803320.8333528,332,1669803320,832723397,imu_link,-1.4903945922851562,0.45608404278755194,9.692952156066896
1669803320.8387084,333,1669803320,838134262,imu_link,-1.4720854759216309,0.47475323081016546,9.697166442871094
1669803320.844163,334,1669803320,843553518,imu_link,-1.4894472360610964,0.48000231385231024,9.711383819580078
1669803320.8482578,335,1669803320,847781789,imu_link,-1.4796407222747803,0.52732253074646,9.682314872741701
1669803320.8534875,336,1669803320,853132676,imu_link,-1.4644509553909304,0.5533195734024048,9.679847717285156
1669803320.8587663,337,1669803320,858471657,imu_link,-1.459287762641907,0.4957948923110962,9.693495750427248
1669803320.8629405,338,1669803320,862675311,imu_link,-1.4327404499053955,0.4913027286529541,9.685691833496094
1669803320.8682694,339,1669803320,867918972,imu_link,-1.4415605068206787,0.512348234653473,9.668471336364748
1669803320.8735416,340,1669803320,873162081,imu_link,-1.4314404726028445,0.46868506073951727,9.67586898803711
1669803320.8786962,341,1669803320,878469238,imu_link,-1.4540640115737917,0.44900238513946533,9.703772544860842
1669803320.8828993,342,1669803320,882690957,imu_link,-1.4315208196640017,0.46120485663414007,9.660533905029297
1669803320.8879807,343,1669803320,887839931,imu_link,-1.4421954154968262,0.48982834815979004,9.692193984985352
1669803320.8934636,344,1669803320,893165950,imu_link,-1.4285398721694949,0.4470044672489167,9.69694232940674
1669803320.8988378,345,1669803320,898454590,imu_link,-1.4340211153030398,0.4911386072635651,9.65789794921875
1669803320.9029593,346,1669803320,902664648,imu_link,-1.4228363037109375,0.4915052950382233,9.68107318878174
1669803320.9081907,347,1669803320,907901021,imu_link,-1.450732946395874,0.48342511057853704,9.696072578430178
1669803320.9138086,348,1669803320,913318684,imu_link,-1.4337073564529421,0.4833102822303772,9.689528465270998
1669803320.9189484,349,1669803320,918581164,imu_link,-1.4390614032745361,0.49329227209091187,9.68643093109131
1669803320.9230757,350,1669803320,922832418,imu_link,-1.4649928808212282,0.4807963073253632,9.70981216430664
1669803320.9289033,351,1669803320,928259074,imu_link,-1.4915786981582644,0.46545737981796265,9.71473503112793
1669803320.9343731,352,1669803320,933650209,imu_link,-1.4694553613662722,0.45263072848320013,9.683238983154297
1669803320.9386837,353,1669803320,937986693,imu_link,-1.4781512022018435,0.40740528702735906,9.697664260864258
1669803320.9441023,354,1669803320,943376721,imu_link,-1.4890191555023193,0.39556318521499634,9.699389457702638
1669803320.9483767,355,1669803320,947659023,imu_link,-1.4956468343734743,0.41963806748390203,9.65964984893799
1669803320.9535646,356,1669803320,953010216,imu_link,-1.51300323009491,0.4261546730995178,9.681304931640625
1669803320.9592085,357,1669803320,958362060,imu_link,-1.5052961111068728,0.3959606885910034,9.698772430419922
1669803320.9632714,358,1669803320,962670828,imu_link,-1.5113296508789062,0.4411388039588928,9.667892456054688
1669803320.9684517,359,1669803320,967966170,imu_link,-1.4797472953796387,0.44459766149520874,9.653326034545898
1669803320.9737332,360,1669803320,973333925,imu_link,-1.5251897573471072,0.43493941426277166,9.67106342315674
1669803320.978862,361,1669803320,978585543,imu_link,-1.5074261426925661,0.43127712607383734,9.65443229675293
1669803320.9833674,362,1669803320,982892016,imu_link,-1.4716225862503054,0.4303644001483918,9.64994525909424
1669803320.9883382,363,1669803320,988173334,imu_link,-1.5024504661560059,0.42932504415512085,9.671438217163086
1669803320.9937682,364,1669803320,993520350,imu_link,-1.5130033493041992,0.408011943101883,9.68730354309082
1669803320.9981437,365,1669803320,997856403,imu_link,-1.498953104019165,0.44096535444259644,9.660869598388672
1669803321.0036466,366,1669803321,3261304,imu_link,-1.4973906278610232,0.4050402045249939,9.663490295410156
1669803321.0088627,367,1669803321,8607664,imu_link,-1.5273795127868652,0.37643277645111084,9.66151237487793
1669803321.0132062,368,1669803321,12787948,imu_link,-1.5166921615600586,0.4203620254993439,9.655218124389648
1669803321.0185199,369,1669803321,18105900,imu_link,-1.5011725425720215,0.40222686529159546,9.694940567016602
1669803321.0237257,370,1669803321,23339578,imu_link,-1.488203763961792,0.3857314884662629,9.712848663330078
1669803321.0288703,371,1669803321,28612918,imu_link,-1.4706692695617676,0.4090700149536133,9.688310623168945
1669803321.0330167,372,1669803321,32811294,imu_link,-1.4221216440200808,0.39938288927078247,9.694530487060547
1669803321.0383615,373,1669803321,38112843,imu_link,-1.4740426540374756,0.41398805379867554,9.703897476196289
1669803321.0441115,374,1669803321,43511707,imu_link,-1.4999243021011355,0.4049240648746491,9.672633171081545
1669803321.0483844,375,1669803321,47831097,imu_link,-1.5187079906463623,0.4361326396465302,9.659071922302248
1669803321.0535586,376,1669803321,53142370,imu_link,-1.501059174537659,0.41364407539367676,9.694448471069336
1669803321.0591555,377,1669803321,58506155,imu_link,-1.4180039167404177,0.39580473303794866,9.68495273590088
1669803321.0630844,378,1669803321,62640323,imu_link,-1.390137314796448,0.45116683840751654,9.66896152496338
1669803321.0686736,379,1669803321,68064833,imu_link,-1.405410408973694,0.4738609194755554,9.698977470397951
1669803321.074233,380,1669803321,73548608,imu_link,-1.453293800354004,0.4952471852302551,9.695620536804201
1669803321.0783544,381,1669803321,77849333,imu_link,-1.4855389595031738,0.5454185009002686,9.639432907104492
1669803321.0835958,382,1669803321,83203119,imu_link,-1.488317131996155,0.5400221347808838,9.678290367126467
1669803321.0886881,383,1669803321,88469611,imu_link,-1.509948968887329,0.5311472415924072,9.709813117980959
1669803321.0928788,384,1669803321,92658538,imu_link,-1.4543228149414062,0.5290805101394653,9.677164077758789
1669803321.0980747,385,1669803321,97887055,imu_link,-1.4384859800338747,0.513191819190979,9.70106315612793
1669803321.10358,386,1669803321,103220015,imu_link,-1.458224654197693,0.49774917960166937,9.721290588378906
1669803321.108676,387,1669803321,108443911,imu_link,-1.4271072149276736,0.44808629155159,9.682803153991701
1669803321.1132057,388,1669803321,112813641,imu_link,-1.4131931066513064,0.45808684825897217,9.674334526062013
1669803321.11882,389,1669803321,118236919,imu_link,-1.4368150234222412,0.4598744213581086,9.727665901184084
1669803321.1244593,390,1669803321,123729830,imu_link,-1.4502669572830202,0.467268705368042,9.67979145050049
1669803321.1284833,391,1669803321,127991769,imu_link,-1.439561128616333,0.529058575630188,9.638740539550781
1669803321.1338353,392,1669803321,133376936,imu_link,-1.434424638748169,0.5009491443634033,9.667010307312013
1669803321.1378877,393,1669803321,137589152,imu_link,-1.4398646354675293,0.5294091701507568,9.656723022460938
1669803321.14304,394,1669803321,142788507,imu_link,-1.4346916675567627,0.5882788896560669,9.644686698913576
1669803321.1482785,395,1669803321,148034730,imu_link,-1.4155511856079102,0.5602850317955018,9.656590461730959
1669803321.153482,396,1669803321,153252472,imu_link,-1.4401566982269287,0.5197755694389344,9.67997455596924
1669803321.158703,397,1669803321,158522260,imu_link,-1.4316833019256592,0.4860116541385651,9.654309272766115
1669803321.1629407,398,1669803321,162723163,imu_link,-1.4561237096786501,0.4949491024017334,9.6546630859375
1669803321.168281,399,1669803321,167935032,imu_link,-1.4769641160964968,0.4348295629024506,9.684741973876953
1669803321.1742425,400,1669803321,173518072,imu_link,-1.5028142929077148,0.43624857068061834,9.659703254699709
1669803321.1784391,401,1669803321,177818178,imu_link,-1.5211849212646484,0.4288806021213532,9.676331520080568
1669803321.1839445,402,1669803321,183201609,imu_link,-1.488157629966736,0.42549991607666016,9.704216957092287
1669803321.189149,403,1669803321,188603045,imu_link,-1.4808449745178223,0.44812411069869995,9.691016197204592
1669803321.1934297,404,1669803321,192862753,imu_link,-1.4541430473327637,0.46771606802940374,9.67527961730957
1669803321.1985936,405,1669803321,198201017,imu_link,-1.4789581298828125,0.49162203073501587,9.706072807312013
1669803321.2041051,406,1669803321,203579697,imu_link,-1.5151467323303223,0.49320766329765325,9.707465171813967
1669803321.2083657,407,1669803321,207879699,imu_link,-1.4823697805404665,0.499081701040268,9.679742813110352
1669803321.2137084,408,1669803321,213234598,imu_link,-1.4744341373443604,0.4661124348640442,9.702486038208008
1669803321.2191327,409,1669803321,218706881,imu_link,-1.478684902191162,0.4502221047878266,9.698443412780763
1669803321.22339,410,1669803321,223018103,imu_link,-1.4593827724456787,0.45008710026741033,9.68155288696289
1669803321.2287188,411,1669803321,228460093,imu_link,-1.4341602325439453,0.4226933717727661,9.702285766601562
1669803321.2329872,412,1669803321,232736326,imu_link,-1.4548572301864626,0.39878991246223455,9.702864646911623
1669803321.238513,413,1669803321,238066675,imu_link,-1.4446444511413574,0.4204289615154267,9.692020416259766
1669803321.243573,414,1669803321,243316537,imu_link,-1.432896971702576,0.4611985683441162,9.670852661132812
1669803321.2489955,415,1669803321,248577784,imu_link,-1.456729054450989,0.46218377351760864,9.697118759155273
1669803321.253104,416,1669803321,252912862,imu_link,-1.4712612628936768,0.47612762451171875,9.661712646484375
1669803321.2588565,417,1669803321,258297679,imu_link,-1.4547483921051025,0.5350567102432251,9.652031898498537
1669803321.263636,418,1669803321,263452771,imu_link,-1.4502347707748415,0.5327543616294862,9.698034286499023
1669803321.2679029,419,1669803321,267732005,imu_link,-1.418849229812622,0.5370503067970277,9.68635654449463
1669803321.273227,420,1669803321,272966122,imu_link,-1.3878492116928103,0.5593377947807313,9.69456672668457
1669803321.2785227,421,1669803321,278234875,imu_link,-1.3853130340576172,0.5094867944717407,9.698403358459474
1669803321.2837698,422,1669803321,283474433,imu_link,-1.407362461090088,0.4940339922904968,9.711702346801758
1669803321.2879589,423,1669803321,287759856,imu_link,-1.4097679853439333,0.5101613998413086,9.69662094116211
1669803321.2934365,424,1669803321,293020176,imu_link,-1.4581515789031982,0.5115363001823426,9.704538345336914
1669803321.298559,425,1669803321,298322850,imu_link,-1.4729583263397217,0.4883467257022858,9.718523025512695
1669803321.3038676,426,1669803321,303670949,imu_link,-1.4631046056747439,0.5062956213951112,9.7060022354126
1669803321.308251,427,1669803321,307896202,imu_link,-1.3906668424606325,0.5279565453529359,9.704451560974123
1669803321.3134513,428,1669803321,313171731,imu_link,-1.364058494567871,0.518404483795166,9.748631477355959
1669803321.3188264,429,1669803321,318579866,imu_link,-1.3582409620285036,0.5002335906028749,9.737584114074709
1669803321.323178,430,1669803321,322905247,imu_link,-1.3600255250930788,0.5530266761779785,9.707122802734375
1669803321.3284066,431,1669803321,328152912,imu_link,-1.3462263345718386,0.5144505500793457,9.704904556274414
1669803321.333873,432,1669803321,333571815,imu_link,-1.3716440200805664,0.4794230163097382,9.701217651367188
1669803321.3379314,433,1669803321,337734191,imu_link,-1.3485863208770752,0.4946885108947754,9.67713260650635
1669803321.3435576,434,1669803321,343208691,imu_link,-1.3319497108459473,0.4796677231788635,9.713246345520021
1669803321.349243,435,1669803321,348646171,imu_link,-1.3677736520767214,0.4583090543746948,9.719404220581055
1669803321.3535736,436,1669803321,353009851,imu_link,-1.364059090614319,0.47482708096504217,9.67837905883789
1669803321.3586342,437,1669803321,358275500,imu_link,-1.3023021221160889,0.4638667702674866,9.698938369750977
1669803321.3638906,438,1669803321,363666032,imu_link,-1.3292036056518555,0.43813520669937134,9.74029541015625
1669803321.3681495,439,1669803321,367916554,imu_link,-1.3451600074768066,0.47416841983795166,9.706570625305178
1669803321.3735278,440,1669803321,373320989,imu_link,-1.3589603900909424,0.4835260510444641,9.711905479431154
1669803321.377757,441,1669803321,377567757,imu_link,-1.3847761154174805,0.4636238217353821,9.727855682373047
1669803321.3835669,442,1669803321,382913713,imu_link,-1.411781191825867,0.4438516199588776,9.70594882965088
1669803321.388649,443,1669803321,388267612,imu_link,-1.3794317245483398,0.4498234987258911,9.688511848449709
1669803321.393822,444,1669803321,393541028,imu_link,-1.411506772041321,0.4340659976005554,9.708578109741211
1669803321.3981328,445,1669803321,397855900,imu_link,-1.4249811172485352,0.3894746601581574,9.687578201293945
1669803321.4033673,446,1669803321,403141221,imu_link,-1.4061696529388428,0.3708725273609162,9.669003486633303
1669803321.40881,447,1669803321,408513539,imu_link,-1.4190325736999512,0.3572472035884858,9.714601516723633
1669803321.413562,448,1669803321,412850902,imu_link,-1.4380601644515993,0.35793769359588623,9.722373962402344
1669803321.4188168,449,1669803321,418269608,imu_link,-1.4178967475891113,0.35271391272544866,9.660436630249023
1669803321.4245088,450,1669803321,423786485,imu_link,-1.437103509902954,0.3921954035758972,9.673928260803224
1669803321.4283075,451,1669803321,427991100,imu_link,-1.459909796714783,0.37606665492057806,9.690821647644045
1669803321.434005,452,1669803321,433399108,imu_link,-1.459395170211792,0.4061291813850403,9.687718391418459
1669803321.4377859,453,1669803321,437597521,imu_link,-1.4303842782974245,0.4486212134361267,9.695719718933107
1669803321.4429824,454,1669803321,442791403,imu_link,-1.4881454706192019,0.4478649199008942,9.702942848205568
1669803321.448635,455,1669803321,448217243,imu_link,-1.511564612388611,0.4374153316020966,9.670960426330568
1669803321.4540317,456,1669803321,453524612,imu_link,-1.49054491519928,0.47433808445930487,9.67397975921631
1669803321.4580057,457,1669803321,457776888,imu_link,-1.4855252504348757,0.442285567522049,9.715395927429201
1669803321.4635088,458,1669803321,463183829,imu_link,-1.4974261522293093,0.4185967147350312,9.692219734191896
1669803321.4692905,459,1669803321,468685981,imu_link,-1.5029412508010866,0.4228251576423645,9.676885604858398
1669803321.4737046,460,1669803321,473086498,imu_link,-1.5238120555877686,0.43402776122093206,9.697384834289553
1669803321.4787154,461,1669803321,478418248,imu_link,-1.533734202384949,0.3874307870864868,9.698645591735842
1669803321.4829922,462,1669803321,482711177,imu_link,-1.4952970743179324,0.3936397433280945,9.663928985595703
1669803321.4883525,463,1669803321,487960814,imu_link,-1.4885210990905762,0.40077987313270574,9.695317268371584
1669803321.4936826,464,1669803321,493314270,imu_link,-1.465956211090088,0.37448614835739136,9.70958137512207
1669803321.498124,465,1669803321,497748757,imu_link,-1.4535820484161377,0.41056945919990545,9.678110122680664
1669803321.5032322,466,1669803321,502962708,imu_link,-1.4733279943466189,0.43048644065856934,9.660698890686037
1669803321.5084949,467,1669803321,508253075,imu_link,-1.4782444238662722,0.40560126304626465,9.667931556701662
1669803321.5146053,468,1669803321,513712159,imu_link,-1.4665107727050781,0.4068774282932282,9.66188716888428
1669803321.5185428,469,1669803321,518063719,imu_link,-1.4595401287078857,0.45334109663963323,9.637628555297852
1669803321.5237873,470,1669803321,523346933,imu_link,-1.4655508995056152,0.4344327449798584,9.672643661499023
1669803321.5278974,471,1669803321,527595224,imu_link,-1.4622932672500613,0.4058906733989716,9.664976119995117
1669803321.5332947,472,1669803321,532912518,imu_link,-1.4276564121246338,0.4432125389575959,9.653047561645508
1669803321.5386136,473,1669803321,538265300,imu_link,-1.4298415184020996,0.4497525691986084,9.68373203277588
1669803321.543827,474,1669803321,543544674,imu_link,-1.4401028156280518,0.4268238842487336,9.699125289916992
1669803321.5484731,475,1669803321,547925651,imu_link,-1.4549456834793093,0.4552848041057587,9.6773681640625
1669803321.5535028,476,1669803321,553194769,imu_link,-1.4482861757278445,0.494101881980896,9.684761047363281
1669803321.5587223,477,1669803321,558472930,imu_link,-1.4765653610229492,0.47414848208427435,9.690157890319826
1669803321.5632963,478,1669803321,562771393,imu_link,-1.4524081945419314,0.5047388076782227,9.661288261413576
1669803321.568328,479,1669803321,568027411,imu_link,-1.4292570352554324,0.5145326256752015,9.678190231323242
1669803321.5735009,480,1669803321,573265168,imu_link,-1.4552301168441775,0.4960477352142334,9.701074600219727
1669803321.5788023,481,1669803321,578566944,imu_link,-1.4703998565673828,0.4923751056194306,9.680323600769045
1669803321.5834439,482,1669803321,582812906,imu_link,-1.4396539926528933,0.4871332943439484,9.660010337829592
1669803321.588411,483,1669803321,588107394,imu_link,-1.4492062330245974,0.4705204069614411,9.690742492675781
1669803321.5938096,484,1669803321,593403364,imu_link,-1.4771443605422976,0.43868619203567505,9.67649555206299
1669803321.5989528,485,1669803321,598739697,imu_link,-1.4934476613998415,0.46067592501640325,9.65884017944336
1669803321.6032488,486,1669803321,602975402,imu_link,-1.5198138952255251,0.4643630683422089,9.683422088623047
1669803321.6085317,487,1669803321,608288513,imu_link,-1.5456109046936035,0.4178217649459839,9.679017066955568
1669803321.6137266,488,1669803321,613545049,imu_link,-1.5416256189346316,0.4421515762805939,9.657437324523928
1669803321.618035,489,1669803321,617746139,imu_link,-1.545858979225159,0.461148887872696,9.649548530578615
1669803321.6238024,490,1669803321,623139458,imu_link,-1.5615550279617312,0.4469647109508515,9.674789428710938
1669803321.6289818,491,1669803321,628373028,imu_link,-1.5889385938644411,0.45834401249885565,9.647363662719727
1669803321.6338422,492,1669803321,633615617,imu_link,-1.578782916069031,0.4889252185821533,9.646825790405273
1669803321.638278,493,1669803321,637935434,imu_link,-1.5715874433517458,0.4819453656673432,9.652790069580078
1669803321.644164,494,1669803321,643357460,imu_link,-1.5797814130783083,0.4666197896003723,9.65810298919678
1669803321.648545,495,1669803321,647665687,imu_link,-1.6010894775390625,0.5202764868736268,9.650057792663576
1669803321.653743,496,1669803321,653006952,imu_link,-1.6293859481811523,0.4819573760032654,9.658604621887209
1669803321.6588984,497,1669803321,658374394,imu_link,-1.6150846481323242,0.4434769451618195,9.654468536376953
1669803321.66323,498,1669803321,662741840,imu_link,-1.5817490816116335,0.46561068296432495,9.659820556640625
1669803321.6686008,499,1669803321,668032252,imu_link,-1.561890482902527,0.42980960011482244,9.68586540222168
1669803321.673681,500,1669803321,673318118,imu_link,-1.547974467277527,0.38010850548744207,9.694196701049805
1669803321.6795864,501,1669803321,678784383,imu_link,-1.5513997077941895,0.3749455213546753,9.639089584350586
1669803321.683393,502,1669803321,683069702,imu_link,-1.5570610761642458,0.368813693523407,9.650152206420898
1669803321.688728,503,1669803321,688390690,imu_link,-1.5947808027267458,0.3504749238491059,9.648413658142092
1669803321.6940072,504,1669803321,693696574,imu_link,-1.5606399774551394,0.36931255459785467,9.643935203552248
1669803321.698155,505,1669803321,697930911,imu_link,-1.5317025184631348,0.42886021733284,9.669186592102053
1669803321.7035303,506,1669803321,703282128,imu_link,-1.49835741519928,0.4306661784648896,9.698489189147951
1669803321.7089057,507,1669803321,708647581,imu_link,-1.491990089416504,0.46595790982246404,9.676161766052248
1669803321.7131844,508,1669803321,712907675,imu_link,-1.506533980369568,0.5502762198448182,9.660153388977053
1669803321.718515,509,1669803321,718265253,imu_link,-1.5758136510849001,0.575351357460022,9.671516418457031
1669803321.723927,510,1669803321,723675374,imu_link,-1.6002159118652344,0.5400261878967285,9.658226013183594
1669803321.7282104,511,1669803321,727932062,imu_link,-1.5708491802215576,0.5469413995742798,9.643716812133789
1669803321.7337177,512,1669803321,733354447,imu_link,-1.513339161872864,0.5194448232650757,9.683694839477539
1669803321.738839,513,1669803321,738602725,imu_link,-1.5077810287475586,0.46447426080703735,9.700934410095217
1669803321.7431242,514,1669803321,742853410,imu_link,-1.4908443689346316,0.4372677803039551,9.685729026794435
1669803321.748481,515,1669803321,748132136,imu_link,-1.4768564701080322,0.40691977739334106,9.693352699279787
1669803321.753685,516,1669803321,753454911,imu_link,-1.512714147567749,0.35749861598014837,9.700257301330568
1669803321.7579963,517,1669803321,757717634,imu_link,-1.4846135377883913,0.38163033127784735,9.688364028930664
1669803321.7638113,518,1669803321,763200654,imu_link,-1.4744994640350342,0.4208561182022095,9.669375419616701
1669803321.7690308,519,1669803321,768574281,imu_link,-1.4958270788192751,0.42007070779800415,9.69680690765381
1669803321.7733314,520,1669803321,772862334,imu_link,-1.503017067909241,0.452920138835907,9.664945602416992
1669803321.7785704,521,1669803321,778199336,imu_link,-1.5048664808273318,0.5118252635002137,9.645518302917482
1669803321.7838871,522,1669803321,783607258,imu_link,-1.498481035232544,0.5022614002227783,9.680496215820312
1669803321.7879565,523,1669803321,787800701,imu_link,-1.5069372653961182,0.48491492867469793,9.660654067993164
1669803321.7933156,524,1669803321,793057840,imu_link,-1.509099364280701,0.5287299156188965,9.650347709655763
1669803321.7986484,525,1669803321,798480347,imu_link,-1.5382074117660525,0.4707810878753662,9.691002845764162
1669803321.803174,526,1669803321,802804804,imu_link,-1.5749175548553467,0.4063811600208283,9.667705535888672
1669803321.8086152,527,1669803321,808261238,imu_link,-1.586743235588074,0.3947394788265229,9.647409439086914
1669803321.8138158,528,1669803321,813486271,imu_link,-1.622648000717163,0.3994018733501435,9.679000854492188
1669803321.8180892,529,1669803321,817827349,imu_link,-1.627880334854126,0.3316424489021301,9.703493118286133
1669803321.82361,530,1669803321,823180241,imu_link,-1.628277659416199,0.35142338275909424,9.660113334655763
1669803321.8288467,531,1669803321,828583895,imu_link,-1.6136159896850586,0.35501804947853094,9.680899620056154
1669803321.833157,532,1669803321,832881142,imu_link,-1.6075121164321902,0.35096806287765503,9.714202880859375
1669803321.83878,533,1669803321,838354683,imu_link,-1.5871709585189822,0.3785281777381897,9.67477321624756
1669803321.844009,534,1669803321,843699397,imu_link,-1.5854305028915407,0.4203235805034638,9.657494544982912
1669803321.848348,535,1669803321,847959369,imu_link,-1.596841812133789,0.4294700026512146,9.675286293029787
1669803321.8535721,536,1669803321,853373719,imu_link,-1.6012152433395388,0.41898962855339056,9.641288757324219
1669803321.8580582,537,1669803321,857743548,imu_link,-1.552995562553406,0.4520995616912842,9.638887405395508
1669803321.8634214,538,1669803321,863131962,imu_link,-1.5407031774520876,0.45084854960441595,9.651522636413576
1669803321.8691103,539,1669803321,868550850,imu_link,-1.5485326051712038,0.42257243394851685,9.66835117340088
1669803321.8734043,540,1669803321,872778208,imu_link,-1.546152114868164,0.4598362743854523,9.626381874084474
1669803321.8789134,541,1669803321,878248411,imu_link,-1.5264233350753786,0.44601276516914373,9.64236068725586
1669803321.8842714,542,1669803321,883660246,imu_link,-1.534240484237671,0.43827238678932195,9.673301696777344
1669803321.8886037,543,1669803321,887987518,imu_link,-1.537943482398987,0.46341419219970703,9.639756202697756
1669803321.893736,544,1669803321,893296230,imu_link,-1.5295044183731081,0.4634419977664948,9.651445388793945
1669803321.8938935,545,1669803321,893321380,imu_link,-1.5774486064910889,0.45233726501464844,9.668493270874023
1669803321.9035711,546,1669803321,902889052,imu_link,-1.5879130363464355,0.4544478356838227,9.66350841522217
1669803321.9083328,547,1669803321,908066134,imu_link,-1.5362515449523926,0.44929832220077515,9.656320571899414
1669803321.9137971,548,1669803321,913459078,imu_link,-1.5305862426757812,0.44195568561553955,9.702770233154297
1669803321.9139154,549,1669803321,913469637,imu_link,-1.5156419277191162,0.4206272661685944,9.708935737609865
1669803321.9231858,550,1669803321,922897039,imu_link,-1.5004028081893923,0.4366713464260102,9.683922767639162
1669803321.928481,551,1669803321,928219917,imu_link,-1.5235959291458132,0.4113713204860688,9.705131530761719
1669803321.9336584,552,1669803321,933448607,imu_link,-1.5282042026519775,0.38788643479347235,9.70014762878418
1669803321.9338124,553,1669803321,933457201,imu_link,-1.5132042169570925,0.44444492459297186,9.655933380126953
1669803321.9433458,554,1669803321,942944821,imu_link,-1.5169990062713623,0.4658189713954926,9.670804023742678
1669803321.9484894,555,1669803321,948201056,imu_link,-1.5378124713897705,0.4548943936824799,9.695378303527834
1669803321.953924,556,1669803321,953482253,imu_link,-1.5151244401931765,0.47601518034935003,9.674165725708008
1669803321.9539597,557,1669803321,953490736,imu_link,-1.451796531677246,0.4836270213127136,9.686772346496584
1669803321.9633737,558,1669803321,963169753,imu_link,-1.4513347148895264,0.4793647527694702,9.710507392883303
1669803321.9687696,559,1669803321,968494611,imu_link,-1.4732625484466553,0.47726649045944214,9.684261322021484
1669803321.973079,560,1669803321,972820011,imu_link,-1.4466991424560547,0.5159779191017152,9.682905197143555
1669803321.973194,561,1669803321,972830244,imu_link,-1.487863540649414,0.46586376428604126,9.684588432312013
1669803321.9837577,562,1669803321,983518429,imu_link,-1.495622158050537,0.4413942396640778,9.66688632965088
1669803321.9879556,563,1669803321,987715609,imu_link,-1.4833606481552126,0.4505767822265625,9.665616035461428
1669803321.993371,564,1669803321,993014780,imu_link,-1.49406099319458,0.46422514319419866,9.691538810729982
1669803321.9933877,565,1669803321,993026362,imu_link,-1.5110286474227907,0.42004579305648804,9.685171127319336
1669803322.004011,566,1669803322,3709192,imu_link,-1.4939382076263428,0.4230652451515198,9.656805992126467
1669803322.0040967,567,1669803322,3722356,imu_link,-1.4857077598571777,0.4656194746494294,9.651713371276857
1669803322.0136123,568,1669803322,13290159,imu_link,-1.4824776649475098,0.42442911863327026,9.704663276672365
1669803322.013622,569,1669803322,13303268,imu_link,-1.4712717533111572,0.4312312602996826,9.657394409179688
1669803322.0189834,570,1669803322,18661895,imu_link,-1.4925788640975954,0.45560067892074585,9.654376029968263
1669803322.0232816,571,1669803322,22862572,imu_link,-1.528515696525574,0.43716853857040405,9.681632041931154
1669803322.0342002,572,1669803322,33796680,imu_link,-1.5245443582534792,0.39614105224609375,9.685246467590334
1669803322.034244,573,1669803322,33808415,imu_link,-1.5095810890197754,0.394891619682312,9.638893127441406
1669803322.038127,574,1669803322,37884302,imu_link,-1.5360996723175049,0.3746770918369294,9.664932250976562
1669803322.0433688,575,1669803322,43126391,imu_link,-1.5514897108078005,0.3575248122215271,9.677708625793459
1669803322.0487218,576,1669803322,48448263,imu_link,-1.5532652139663699,0.3566657304763794,9.641305923461914
1669803322.0530639,577,1669803322,52868463,imu_link,-1.5364761352539062,0.3632995188236237,9.682200431823732
1669803322.0586476,578,1669803322,58376406,imu_link,-1.5655275583267214,0.37580552697181707,9.686890602111818
1669803322.063959,579,1669803322,63649118,imu_link,-1.5566822290420534,0.4274862706661225,9.657355308532717
1669803322.0680792,580,1669803322,67883898,imu_link,-1.5425007343292236,0.43179577589035034,9.665429115295412
1669803322.0734177,581,1669803322,73155642,imu_link,-1.5683972835540771,0.431865930557251,9.692405700683594
1669803322.0787072,582,1669803322,78451068,imu_link,-1.5446078777313232,0.46792337298393255,9.650361061096193
1669803322.08401,583,1669803322,83719484,imu_link,-1.5457576513290407,0.5052252411842347,9.655840873718263
1669803322.088297,584,1669803322,87934084,imu_link,-1.5534378290176394,0.4573506712913513,9.685837745666506
1669803322.093775,585,1669803322,93324681,imu_link,-1.5727235078811648,0.4546273052692414,9.663668632507326
1669803322.0993135,586,1669803322,98764594,imu_link,-1.5666283369064333,0.46549010276794434,9.664602279663086
1669803322.103805,587,1669803322,103062165,imu_link,-1.5349375009536745,0.4592999815940857,9.673546791076662
1669803322.1086147,588,1669803322,108258407,imu_link,-1.5271248817443848,0.4447585046291352,9.672564506530763
1669803322.1137598,589,1669803322,113532468,imu_link,-1.508620619773865,0.49187269806861883,9.645343780517578
1669803322.1191704,590,1669803322,118796143,imu_link,-1.5401883125305176,0.47789636254310613,9.679571151733398
1669803322.1233764,591,1669803322,123104514,imu_link,-1.5271329879760742,0.45925891399383545,9.681905746459961
1669803322.1293848,592,1669803322,128575970,imu_link,-1.5065410137176514,0.47105419635772705,9.644893646240234
1669803322.1336672,593,1669803322,132899459,imu_link,-1.5259785652160645,0.5114918351173402,9.667028427124023
1669803322.1389186,594,1669803322,138274894,imu_link,-1.551758646965027,0.4778353869915009,9.670770645141602
1669803322.1444786,595,1669803322,143670847,imu_link,-1.5222299098968506,0.4860087335109711,9.656963348388672
1669803322.1486828,596,1669803322,148004878,imu_link,-1.4965217113494873,0.48643299937248236,9.656594276428224
1669803322.1540508,597,1669803322,153577885,imu_link,-1.5043147802352907,0.4682262837886811,9.682764053344727
1669803322.158229,598,1669803322,157836586,imu_link,-1.5080560445785525,0.4444036185741425,9.67414665222168
1669803322.1634896,599,1669803322,163214190,imu_link,-1.5086517333984375,0.47794729471206665,9.663599014282227
1669803322.1687944,600,1669803322,168565142,imu_link,-1.523445248603821,0.43010520935058594,9.688852310180664
1669803322.173076,601,1669803322,172791297,imu_link,-1.5101220607757568,0.42316493391990667,9.675129890441896
1669803322.1784127,602,1669803322,178134012,imu_link,-1.4774196147918701,0.43930205702781683,9.666821479797365
1669803322.1837509,603,1669803322,183539649,imu_link,-1.469783067703247,0.4432291686534882,9.702246665954592
1669803322.1889935,604,1669803322,188748260,imu_link,-1.5004812479019167,0.44230893254280096,9.691134452819826
1669803322.193298,605,1669803322,193007569,imu_link,-1.490798592567444,0.44028684496879583,9.647714614868164
1669803322.1985073,606,1669803322,198304056,imu_link,-1.484863042831421,0.4462330043315888,9.665173530578615
1669803322.2039142,607,1669803322,203659862,imu_link,-1.486744046211243,0.4084129333496094,9.680511474609375
1669803322.2080626,608,1669803322,207847347,imu_link,-1.4658223390579226,0.3964998722076416,9.660059928894045
1669803322.213286,609,1669803322,213087245,imu_link,-1.4600651264190674,0.42690908908843994,9.661693572998047
1669803322.2185917,610,1669803322,218339356,imu_link,-1.4868769645690918,0.4161937534809113,9.6695032119751
1669803322.224029,611,1669803322,223643207,imu_link,-1.4772229194641113,0.38807269930839544,9.659626007080078
1669803322.228339,612,1669803322,227885374,imu_link,-1.4634590148925781,0.4201722741127014,9.663371086120607
1669803322.2335129,613,1669803322,233133268,imu_link,-1.4764603376388552,0.43396782875061035,9.686465263366701
1669803322.2386203,614,1669803322,238338752,imu_link,-1.5097926855087282,0.4514756202697754,9.679192543029787
1669803322.2439878,615,1669803322,243726770,imu_link,-1.5040919780731201,0.4631775915622712,9.660231590270998
1669803322.2483208,616,1669803322,248001686,imu_link,-1.4994986057281494,0.42581608891487127,9.688494682312013
1669803322.2535653,617,1669803322,253290734,imu_link,-1.4896804094314577,0.384968101978302,9.685339927673342
1669803322.2590613,618,1669803322,258659008,imu_link,-1.484147548675537,0.3858587145805359,9.673089981079102
1669803322.2635896,619,1669803322,263001908,imu_link,-1.4789544343948366,0.37135973572731024,9.700621604919435
1669803322.269182,620,1669803322,268432347,imu_link,-1.4851930141448975,0.35311102867126465,9.71311664581299
1669803322.273174,621,1669803322,272912394,imu_link,-1.4906638860702517,0.35696336627006536,9.684649467468263
1669803322.2785695,622,1669803322,278234859,imu_link,-1.4666153192520144,0.37024205923080444,9.672753334045412
1669803322.283841,623,1669803322,283600997,imu_link,-1.4915720224380495,0.369016170501709,9.70523452758789
1669803322.288364,624,1669803322,287971630,imu_link,-1.4786790609359743,0.4020566046237946,9.681682586669922
1669803322.2943108,625,1669803322,293538800,imu_link,-1.500779628753662,0.4305387437343598,9.646074295043945
1669803322.2986012,626,1669803322,297899668,imu_link,-1.4920059442520144,0.4179170429706574,9.693024635314943
1669803322.304064,627,1669803322,303419058,imu_link,-1.4615665674209597,0.4030874073505402,9.688789367675781
1669803322.3093529,628,1669803322,308802213,imu_link,-1.4077696800231934,0.42081996798515325,9.66118907928467
1669803322.3137445,629,1669803322,313103100,imu_link,-1.3970544338226318,0.39081186056137085,9.667592048645021
1669803322.31925,630,1669803322,318587081,imu_link,-1.4315409660339355,0.374023586511612,9.658683776855469
1669803322.3237991,631,1669803322,323115442,imu_link,-1.4398078918457031,0.37686446309089666,9.645776748657227
1669803322.3292575,632,1669803322,328580599,imu_link,-1.439016938209534,0.37327641248703003,9.664932250976562
1669803322.3335836,633,1669803322,332946294,imu_link,-1.4298015832901003,0.3525387346744538,9.684554100036623
1669803322.338887,634,1669803322,338390010,imu_link,-1.4022456407547,0.38651418685913086,9.667626380920412
1669803322.343429,635,1669803322,342902722,imu_link,-1.3798190355300906,0.4277029931545258,9.673947334289553
1669803322.3489218,636,1669803322,348348023,imu_link,-1.3604319095611572,0.41215914487838745,9.723467826843263
1669803322.3545437,637,1669803322,353785576,imu_link,-1.397291660308838,0.45229625701904297,9.711896896362305
1669803322.3588889,638,1669803322,358146772,imu_link,-1.4551031589508057,0.5176926255226136,9.690848350524904
1669803322.363852,639,1669803322,363499870,imu_link,-1.4838991165161133,0.5185764431953431,9.709918975830078
1669803322.3680642,640,1669803322,367850003,imu_link,-1.4967541694641113,0.48225405812263494,9.712636947631836
1669803322.3735714,641,1669803322,373206790,imu_link,-1.4627394676208496,0.46898043155670166,9.712711334228516
1669803322.3790612,642,1669803322,378573545,imu_link,-1.435484290122986,0.4345623850822449,9.732485771179201
1669803322.383379,643,1669803322,382874021,imu_link,-1.4412552118301394,0.4059379398822785,9.714295387268068
1669803322.3884583,644,1669803322,388106456,imu_link,-1.4322926998138428,0.42080351710319525,9.693871498107912
1669803322.394381,645,1669803322,393652143,imu_link,-1.435890078544617,0.41186133027076727,9.667320251464844
1669803322.3986778,646,1669803322,397975548,imu_link,-1.46678364276886,0.39302659034729004,9.68527603149414
1669803322.4040964,647,1669803322,403501152,imu_link,-1.4480098485946657,0.4562617242336274,9.673893928527834
1669803322.4103923,648,1669803322,409863820,imu_link,-1.4408514499664307,0.4978044033050537,9.661383628845217
1669803322.4134612,649,1669803322,413071690,imu_link,-1.4663338661193848,0.5134853720664979,9.660778999328615
1669803322.4187975,650,1669803322,418379845,imu_link,-1.45420241355896,0.5302934050559999,9.642982482910156
1669803322.4239328,651,1669803322,423694966,imu_link,-1.4249473810195925,0.5313561558723451,9.642354965209961
1669803322.4280858,652,1669803322,427898988,imu_link,-1.4055694341659548,0.4910961389541626,9.6650390625
1669803322.4334278,653,1669803322,433200400,imu_link,-1.434363842010498,0.4543532729148865,9.66639518737793
1669803322.4386435,654,1669803322,438400034,imu_link,-1.4215576648712158,0.4251037836074829,9.642596244812013
1669803322.443075,655,1669803322,442755265,imu_link,-1.4696071147918701,0.36457473039627075,9.677608489990234
1669803322.4485314,656,1669803322,448071611,imu_link,-1.476901173591614,0.3158221542835236,9.655126571655273
1669803322.4536023,657,1669803322,453313449,imu_link,-1.4585041999816895,0.3235212862491608,9.63250732421875
1669803322.458841,658,1669803322,458590360,imu_link,-1.4610072374343874,0.3416981399059296,9.667283058166506
1669803322.4629862,659,1669803322,462778255,imu_link,-1.4661808013916016,0.3385846018791199,9.683828353881836
1669803322.4682062,660,1669803322,467993002,imu_link,-1.4857996702194216,0.393854022026062,9.66114616394043
1669803322.4735143,661,1669803322,473245006,imu_link,-1.4838198423385622,0.45009827613830566,9.660886764526367
1669803322.4789517,662,1669803322,478641522,imu_link,-1.496321201324463,0.4623077213764191,9.700738906860352
1669803322.4831474,663,1669803322,482925984,imu_link,-1.5053949356079102,0.47203883528709417,9.678487777709961
1669803322.4885497,664,1669803322,488284281,imu_link,-1.48919677734375,0.5181648135185243,9.66161632537842
1669803322.493834,665,1669803322,493493989,imu_link,-1.517512321472168,0.4809263646602631,9.701561927795412
1669803322.4980123,666,1669803322,497808389,imu_link,-1.518083691596985,0.420066237449646,9.698713302612305
1669803322.5033107,667,1669803322,503091584,imu_link,-1.4805918931961062,0.42854803800582886,9.699482917785646
1669803322.5087779,668,1669803322,508435586,imu_link,-1.4887934923172,0.40590587258338934,9.710777282714844
1669803322.5136487,669,1669803322,512897715,imu_link,-1.4942346811294558,0.3705332279205322,9.718022346496584
1669803322.519155,670,1669803322,518359138,imu_link,-1.5059572458267214,0.4166689813137055,9.679250717163086
1669803322.5245059,671,1669803322,523787806,imu_link,-1.4672335386276247,0.41601392626762396,9.698954582214357
1669803322.5290225,672,1669803322,528199592,imu_link,-1.4366068840026855,0.4151412844657898,9.694698333740234
1669803322.534506,673,1669803322,533768437,imu_link,-1.4240785837173464,0.4563136994838715,9.663471221923828
1669803322.5385284,674,1669803322,538032147,imu_link,-1.4210844039916992,0.4794391393661499,9.650484085083008
1669803322.543942,675,1669803322,543482191,imu_link,-1.449540972709656,0.49592143297195435,9.663595199584961
1669803322.5481887,676,1669803322,547743816,imu_link,-1.423220753669739,0.4928431510925293,9.653636932373047
1669803322.5533473,677,1669803322,553080724,imu_link,-1.3646067380905154,0.5091736316680908,9.649019241333008
1669803322.5585675,678,1669803322,558308563,imu_link,-1.3419773578643799,0.4776787459850312,9.664956092834474
1669803322.563748,679,1669803322,563622874,imu_link,-1.356804966926575,0.4718210697174072,9.67989730834961
1669803322.5680463,680,1669803322,567910685,imu_link,-1.3918515443801882,0.46554854512214666,9.644827842712404
1669803322.573359,681,1669803322,573115541,imu_link,-1.4386582374572754,0.45334380865097046,9.690367698669435
1669803322.5788748,682,1669803322,578440995,imu_link,-1.4646775722503662,0.42123907804489136,9.673032760620117
1669803322.5838828,683,1669803322,583675950,imu_link,-1.4562902450561523,0.45402854681015015,9.656194686889648
1669803322.588067,684,1669803322,587874995,imu_link,-1.4567856788635254,0.47609582543373113,9.683507919311523
1669803322.5933821,685,1669803322,593127446,imu_link,-1.4408813714981081,0.46485146880149847,9.72609043121338
1669803322.5989165,686,1669803322,598554604,imu_link,-1.4066766500473025,0.46804869174957275,9.703872680664062
1669803322.6030571,687,1669803322,602842217,imu_link,-1.3714473247528076,0.46701574325561523,9.707525253295898
1669803322.6083508,688,1669803322,608110456,imu_link,-1.400067448616028,0.43057751655578613,9.734034538269045
1669803322.6141896,689,1669803322,613582401,imu_link,-1.4496704339981081,0.4390646815299988,9.69738292694092
1669803322.6185412,690,1669803322,617916776,imu_link,-1.4451978206634521,0.4397646188735962,9.697114944458008
1669803322.6241114,691,1669803322,623411631,imu_link,-1.4502478837966921,0.3845126926898957,9.708184242248537
1669803322.6284702,692,1669803322,627883770,imu_link,-1.4511778354644775,0.3750750124454499,9.680627822875977
1669803322.6338887,693,1669803322,633278535,imu_link,-1.4072415828704834,0.40332359075546265,9.679916381835938
1669803322.6393735,694,1669803322,638710880,imu_link,-1.4115320444107058,0.42160284519195557,9.667256355285646
1669803322.6437216,695,1669803322,642997833,imu_link,-1.4290437698364258,0.40532803535461426,9.682409286499023
1669803322.648859,696,1669803322,648334859,imu_link,-1.4171581268310547,0.4046545326709748,9.66078853607178
1669803322.655646,697,1669803322,654925900,imu_link,-1.434035062789917,0.43094027042388916,9.679087638854982
1669803322.658621,698,1669803322,658110552,imu_link,-1.4585815668106081,0.41830471158027654,9.682819366455078
1669803322.6637928,699,1669803322,663446872,imu_link,-1.4806958436965945,0.44869738817214966,9.637122154235842
1669803322.6690977,700,1669803322,668723200,imu_link,-1.5052422285079958,0.47291544079780584,9.676563262939453
1669803322.6732638,701,1669803322,672948533,imu_link,-1.500674605369568,0.4100536406040192,9.681110382080078
1669803322.6786652,702,1669803322,678313925,imu_link,-1.4694358110427859,0.3902279436588288,9.693669319152834
1669803322.683783,703,1669803322,683529961,imu_link,-1.4524319171905518,0.4054776430130005,9.686151504516602
1669803322.690097,704,1669803322,689921583,imu_link,-1.4847458600997927,0.39168912172317505,9.6978235244751
1669803322.6931558,705,1669803322,692956980,imu_link,-1.4988476037979128,0.3618146777153015,9.696715354919435
1669803322.6984944,706,1669803322,698175149,imu_link,-1.445267677307129,0.37529692053794866,9.702654838562013
1669803322.7037852,707,1669803322,703427164,imu_link,-1.4357802867889404,0.3967722356319428,9.717711448669435
1669803322.709008,708,1669803322,708783492,imu_link,-1.4480440616607666,0.3844684958457947,9.719454765319826
1669803322.7134378,709,1669803322,713021534,imu_link,-1.424670934677124,0.4057904183864594,9.707820892333984
1669803322.7185051,710,1669803322,718289233,imu_link,-1.4194515943527224,0.4134957790374756,9.707805633544922
1669803322.7237258,711,1669803322,723530466,imu_link,-1.4226882457733154,0.3991103768348694,9.717647552490234
1669803322.7284763,712,1669803322,727906304,imu_link,-1.3985590934753418,0.41191056370735174,9.704574584960938
1669803322.7340016,713,1669803322,733367571,imu_link,-1.3571089506149294,0.4539356231689453,9.688051223754883
1669803322.7385197,714,1669803322,737856795,imu_link,-1.3888318538665771,0.45132908225059515,9.69658946990967
1669803322.7437773,715,1669803322,743199259,imu_link,-1.3657410144805908,0.4662523865699768,9.704851150512695
1669803322.7492602,716,1669803322,748554202,imu_link,-1.3372308015823366,0.4998342692852021,9.679055213928224
1669803322.7534084,717,1669803322,752916970,imu_link,-1.3460425138473513,0.4840132296085358,9.69850254058838
1669803322.7592506,718,1669803322,758419415,imu_link,-1.348963737487793,0.5117720365524292,9.699721336364748
1669803322.763418,719,1669803322,762854555,imu_link,-1.3307658433914187,0.5225982069969178,9.697707176208498
1669803322.76903,720,1669803322,768343684,imu_link,-1.3578370809555056,0.5049501061439515,9.699268341064453
1669803322.7745225,721,1669803322,773725342,imu_link,-1.3648434877395632,0.448138952255249,9.716096878051758
1669803322.7786124,722,1669803322,778076380,imu_link,-1.3488614559173584,0.45394459366798406,9.704751968383789
1669803322.7846112,723,1669803322,783743359,imu_link,-1.3589543104171755,0.40269213914871216,9.738133430480959
1669803322.7886686,724,1669803322,788097048,imu_link,-1.3862793445587158,0.35908061265945435,9.76678466796875
1669803322.7937677,725,1669803322,793432232,imu_link,-1.4220324754714968,0.37817174196243286,9.732925415039062
1669803322.7990794,726,1669803322,798768385,imu_link,-1.3951098918914795,0.35163542628288275,9.747178077697756
1669803322.803365,727,1669803322,803026139,imu_link,-1.4128646850585938,0.3369075953960419,9.774376869201662
1669803322.808949,728,1669803322,808395452,imu_link,-1.3769876956939697,0.3370622992515564,9.742301940917969
1669803322.8139038,729,1669803322,813687750,imu_link,-1.3760020732879639,0.40286731719970703,9.724796295166016
1669803322.8181925,730,1669803322,817893646,imu_link,-1.3819764852523806,0.4124820828437805,9.731517791748047
1669803322.8236697,731,1669803322,823244027,imu_link,-1.350787878036499,0.3717575669288635,9.691814422607422
1669803322.8290834,732,1669803322,828727490,imu_link,-1.364655375480652,0.43351361155509954,9.688992500305178
1669803322.833273,733,1669803322,832940037,imu_link,-1.3754049539566042,0.4589929282665253,9.678490638732912
1669803322.8387418,734,1669803322,838348922,imu_link,-1.359198808670044,0.4273648262023926,9.682269096374513
1669803322.8452342,735,1669803322,844967651,imu_link,-1.3485970497131348,0.4334606230258942,9.667810440063477
1669803322.8483753,736,1669803322,848145143,imu_link,-1.3196307420730593,0.4130713641643525,9.689486503601076
1669803322.8540835,737,1669803322,853786669,imu_link,-1.3429663181304932,0.38400542736053467,9.69486713409424
1669803322.8583484,738,1669803322,858106236,imu_link,-1.3521016836166384,0.3677569925785065,9.664482116699219
1669803322.863939,739,1669803322,863534210,imu_link,-1.3862625360488894,0.38285791873931885,9.678297996520998
1669803322.8681254,740,1669803322,867804381,imu_link,-1.4101150035858154,0.3513586819171906,9.698549270629883
1669803322.87344,741,1669803322,873117561,imu_link,-1.3949211835861208,0.33477550745010376,9.709994316101076
1669803322.878711,742,1669803322,878478454,imu_link,-1.3737843036651611,0.36253678798675537,9.702211380004883
1669803322.8830044,743,1669803322,882780539,imu_link,-1.3589580059051514,0.3564733862876892,9.716740608215334
1669803322.889032,744,1669803322,888325490,imu_link,-1.4012495279312136,0.36737307906150823,9.724853515625
1669803322.8934245,745,1669803322,892804583,imu_link,-1.3917231559753418,0.37250384688377386,9.718340873718263
1669803322.899072,746,1669803322,898395501,imu_link,-1.382591724395752,0.3598390817642212,9.718282699584961
1669803322.903274,747,1669803322,902754574,imu_link,-1.401518225669861,0.358634501695633,9.69249153137207
1669803322.9087906,748,1669803322,908226971,imu_link,-1.3661127090454102,0.3627983331680298,9.693501472473146
1669803322.9142866,749,1669803322,913665530,imu_link,-1.4044585227966309,0.37801593542099,9.698719978332521
1669803322.9184186,750,1669803322,917911634,imu_link,-1.421280860900879,0.35539698600769043,9.701939582824709
1669803322.923723,751,1669803322,923287403,imu_link,-1.4076932668685915,0.3755941390991211,9.682912826538086
1669803322.9291484,752,1669803322,928722710,imu_link,-1.3995746374130251,0.40074604749679565,9.657929420471193
1669803322.9333615,753,1669803322,932944751,imu_link,-1.4321777820587158,0.3966910243034363,9.66576671600342
1669803322.9385731,754,1669803322,938280143,imu_link,-1.47092604637146,0.39624729752540594,9.631901741027834
1669803322.9438438,755,1669803322,943611960,imu_link,-1.4861464500427246,0.43285819888114935,9.62740993499756
1669803322.9480934,756,1669803322,947913401,imu_link,-1.4867528676986697,0.4143705070018769,9.655236244201662
1669803322.9536767,757,1669803322,953404149,imu_link,-1.436409115791321,0.4072465598583222,9.666495323181154
1669803322.959087,758,1669803322,958660149,imu_link,-1.4454667568206787,0.43520474433898926,9.645682334899904
1669803322.9631112,759,1669803322,962860462,imu_link,-1.5033459663391113,0.44854938983917236,9.66702651977539
1669803322.9682767,760,1669803322,968102035,imu_link,-1.5948867797851562,0.432522863149643,9.650490760803224
1669803322.9736123,761,1669803322,973391998,imu_link,-1.6472514867782595,0.44709196686744695,9.622464179992678
1669803322.9789393,762,1669803322,978698777,imu_link,-1.6688078641891482,0.454584002494812,9.637201309204102
1669803322.9831948,763,1669803322,982945655,imu_link,-1.6453020572662354,0.4186742901802063,9.672115325927734
1669803322.9886103,764,1669803322,988181792,imu_link,-1.6144230365753174,0.44400227069854736,9.667147636413576
1669803322.9939833,765,1669803322,993587212,imu_link,-1.6021658182144167,0.47472530603408813,9.65629291534424
1669803322.9979963,766,1669803322,997758092,imu_link,-1.6351404190063477,0.4679083824157715,9.684506416320803
1669803323.0039692,767,1669803323,3332220,imu_link,-1.6924852132797243,0.4865984320640564,9.665398597717287
1669803323.0093982,768,1669803323,8759480,imu_link,-1.7051600217819216,0.4900515675544739,9.66065311431885
1669803323.0137787,769,1669803323,13142559,imu_link,-1.7229912281036377,0.4827112555503845,9.664377212524414
1669803323.019149,770,1669803323,18555513,imu_link,-1.7596943378448486,0.47978317737579346,9.641808509826662
1669803323.0234883,771,1669803323,22901709,imu_link,-1.7095185518264773,0.46963727474212646,9.64539909362793
1669803323.02911,772,1669803323,28344665,imu_link,-1.6680687665939333,0.44420355558395386,9.668944358825685
1669803323.0345426,773,1669803323,33746905,imu_link,-1.640056848526001,0.3969303369522095,9.670977592468263
1669803323.0386999,774,1669803323,38167901,imu_link,-1.649724364280701,0.4462435245513916,9.63626003265381
1669803323.0442362,775,1669803323,43539195,imu_link,-1.65743625164032,0.45161116123199463,9.662215232849123
1669803323.0503483,776,1669803323,49852563,imu_link,-1.688627004623413,0.44304206967353826,9.670031547546388
1669803323.0534008,777,1669803323,53007297,imu_link,-1.6582416296005251,0.47594973444938665,9.632974624633789
1669803323.0587146,778,1669803323,58339763,imu_link,-1.6518722772598269,0.5209505558013916,9.63533687591553
1669803323.063929,779,1669803323,63612283,imu_link,-1.6468007564544678,0.529434084892273,9.647057533264162
1669803323.06811,780,1669803323,67820749,imu_link,-1.612931728363037,0.5202627778053285,9.632763862609865
1669803323.073335,781,1669803323,73045727,imu_link,-1.5836477279663086,0.5360680818557739,9.631166458129883
1669803323.0785575,782,1669803323,78274078,imu_link,-1.5636632442474365,0.5124964118003846,9.652650833129883
1669803323.0836768,783,1669803323,83502406,imu_link,-1.5558420419692995,0.4616296887397766,9.65526008605957
1669803323.0900228,784,1669803323,89822054,imu_link,-1.550805449485779,0.45826566219329834,9.612092018127443
1669803323.093153,785,1669803323,92954406,imu_link,-1.5621522665023806,0.4002082943916321,9.644524574279787
1669803323.0984375,786,1669803323,98181933,imu_link,-1.547288417816162,0.3466919958591462,9.633448600769045
1669803323.1035893,787,1669803323,103427900,imu_link,-1.5452619791030886,0.3597197830677033,9.619768142700195
1669803323.1088765,788,1669803323,108665239,imu_link,-1.4829678535461426,0.3483512699604035,9.65732192993164
1669803323.113049,789,1669803323,112846664,imu_link,-1.4701079130172732,0.34061241149902344,9.6747522354126
1669803323.1182828,790,1669803323,118062186,imu_link,-1.4745122194290163,0.36637201905250555,9.659896850585938
1669803323.123681,791,1669803323,123369139,imu_link,-1.451179027557373,0.3937495052814484,9.648027420043945
