Time,header.seq,header.stamp.secs,header.stamp.nsecs,header.frame_id,vector.x,vector.y,vector.z
1669803653.5994139,258,1669803653,598275902,imu_link,0.7983266115188599,0.6788557767868042,9.708230972290039
1669803653.6027951,259,1669803653,602483129,imu_link,0.8464174270629883,0.7101330161094667,9.702455520629883
1669803653.6080668,260,1669803653,607763796,imu_link,0.9200334548950195,0.7429400682449341,9.674991607666016
1669803653.6134548,261,1669803653,613048112,imu_link,0.8931196928024292,0.6853617429733276,9.707266807556154
1669803653.618674,262,1669803653,618359718,imu_link,0.9385939836502075,0.6764127612113954,9.692411422729492
1669803653.6227841,263,1669803653,622528582,imu_link,0.9866988062858583,0.7334095239639282,9.680657386779787
1669803653.6280775,264,1669803653,627816426,imu_link,0.9427429437637329,0.6469655632972718,9.687845230102539
1669803653.6337724,265,1669803653,633199168,imu_link,0.9252035021781922,0.6140552759170532,9.7315673828125
1669803653.639228,266,1669803653,638589629,imu_link,0.961750864982605,0.6622030735015869,9.69614028930664
1669803653.6432276,267,1669803653,642845113,imu_link,0.9646586179733276,0.6149020791053773,9.701416969299318
1669803653.6484258,268,1669803653,648081484,imu_link,0.9359297156333924,0.5624917149543763,9.75885009765625
1669803653.653731,269,1669803653,653391044,imu_link,0.9609981179237367,0.6119352579116821,9.73018550872803
1669803653.6581306,270,1669803653,657679944,imu_link,0.9506268501281738,0.6325719952583314,9.734317779541016
1669803653.6632328,271,1669803653,662937429,imu_link,0.8907878994941713,0.5832222700119019,9.762928009033203
1669803653.6684322,272,1669803653,668148788,imu_link,0.8781064152717591,0.6284701824188232,9.755784034729006
1669803653.6735878,273,1669803653,673378146,imu_link,0.8832239508628846,0.6639139056205751,9.755500793457031
1669803653.677824,274,1669803653,677613984,imu_link,0.8013962507247925,0.5944174528121948,9.753541946411133
1669803653.6836958,275,1669803653,683079804,imu_link,0.7725655436515809,0.6204508543014526,9.74673366546631
1669803653.6889718,276,1669803653,688344553,imu_link,0.8018869757652284,0.668018400669098,9.729070663452148
1669803653.6930668,277,1669803653,692588372,imu_link,0.7741259932518006,0.6106632351875306,9.759894371032717
1669803653.698368,278,1669803653,697886512,imu_link,0.7923464179039003,0.6046808362007142,9.737296104431154
1669803653.7036793,279,1669803653,703244680,imu_link,0.7979295253753662,0.6819015741348267,9.721161842346193
1669803653.7088156,280,1669803653,708454890,imu_link,0.7638785243034364,0.6446012258529663,9.739073753356935
1669803653.7129948,281,1669803653,712705067,imu_link,0.7294896245002748,0.6477733850479126,9.748827934265138
1669803653.718319,282,1669803653,717991899,imu_link,0.7857566475868226,0.7371367812156678,9.704417228698732
1669803653.7234237,283,1669803653,723200091,imu_link,0.7954992055892944,0.7274816036224365,9.71202278137207
1669803653.7287257,284,1669803653,728438935,imu_link,0.7684359550476074,0.6713829636573793,9.733761787414553
1669803653.733024,285,1669803653,732727166,imu_link,0.854397475719452,0.7187893390655518,9.712693214416506
1669803653.7383347,286,1669803653,737995707,imu_link,0.869803786277771,0.7392510175704956,9.68504047393799
1669803653.7435746,287,1669803653,743311780,imu_link,0.8737568855285645,0.645145058631897,9.736824035644531
1669803653.747846,288,1669803653,747577010,imu_link,0.9168230891227723,0.6738084554672241,9.710940361022951
1669803653.7531507,289,1669803653,752881605,imu_link,0.9891344904899598,0.681833028793335,9.72231960296631
1669803653.7584987,290,1669803653,758182247,imu_link,0.961089313030243,0.6371530890464784,9.72511100769043
1669803653.7635815,291,1669803653,763330363,imu_link,0.9549708962440492,0.6496343016624452,9.728255271911623
1669803653.7684538,292,1669803653,767728481,imu_link,1.0351139307022097,0.6930371522903442,9.71681308746338
1669803653.7735956,293,1669803653,773088014,imu_link,1.0132954120635986,0.6577740907669067,9.728199005126953
1669803653.778742,294,1669803653,778358473,imu_link,1.0153295993804932,0.6345586180686952,9.751452445983888
1669803653.7829814,295,1669803653,782590368,imu_link,1.080289602279663,0.6874127984046937,9.739110946655273
1669803653.7882767,296,1669803653,787873513,imu_link,1.0655645132064822,0.6563553810119629,9.751423835754396
1669803653.7935166,297,1669803653,793166459,imu_link,1.0490044355392458,0.6095577478408813,9.792285919189453
1669803653.7987716,298,1669803653,798452863,imu_link,1.0740696191787722,0.6650991439819336,9.761218070983888
1669803653.8029232,299,1669803653,802707428,imu_link,1.114412784576416,0.6640225648880005,9.76126003265381
1669803653.8080945,300,1669803653,807871481,imu_link,1.0814124345779421,0.6210255026817323,9.800501823425295
1669803653.8134809,301,1669803653,813108723,imu_link,1.1008784770965576,0.6554709672927856,9.785066604614258
1669803653.8191888,302,1669803653,818482914,imu_link,1.1247761249542236,0.7288941144943237,9.759287834167482
1669803653.8231933,303,1669803653,822738837,imu_link,1.0859614610672,0.7017783522605897,9.779376029968263
1669803653.8285189,304,1669803653,828136799,imu_link,1.065354347229004,0.7650795578956605,9.778276443481445
1669803653.8337865,305,1669803653,833432094,imu_link,1.1043307781219482,0.8142772316932679,9.75745487213135
1669803653.8378696,306,1669803653,837648070,imu_link,1.0543510913848877,0.7711441516876221,9.788897514343263
1669803653.843296,307,1669803653,842854679,imu_link,1.000516653060913,0.7761718630790712,9.775503158569336
1669803653.8484633,308,1669803653,848095846,imu_link,1.0462893247604372,0.8486853837966919,9.764964103698732
1669803653.8534398,309,1669803653,853244600,imu_link,0.9987887144088745,0.7897767424583436,9.762809753417969
1669803653.8588958,310,1669803653,858510770,imu_link,0.950420916080475,0.720045804977417,9.807916641235352
1669803653.8629403,311,1669803653,862669341,imu_link,0.9666096568107606,0.7567318677902222,9.769000053405763
1669803653.8680978,312,1669803653,867852957,imu_link,0.9410947561264038,0.7371580004692079,9.750668525695803
1669803653.8739014,313,1669803653,873263719,imu_link,0.8922834992408754,0.6669963598251343,9.772502899169922
1669803653.8790624,314,1669803653,878560313,imu_link,0.8936241269111634,0.7065327167510986,9.75978183746338
1669803653.8832371,315,1669803653,882805427,imu_link,0.9207311868667603,0.6970877051353456,9.737841606140138
1669803653.8884544,316,1669803653,888041484,imu_link,0.8752381205558778,0.662310004234314,9.766368865966797
1669803653.8935513,317,1669803653,893270576,imu_link,0.8868508338928223,0.6896875500679017,9.76821517944336
1669803653.8977,318,1669803653,897454396,imu_link,0.9333396553993226,0.7315385341644287,9.713079452514648
1669803653.9028664,319,1669803653,902675329,imu_link,0.9263747334480287,0.6793214678764344,9.767775535583498
1669803653.908167,320,1669803653,907988434,imu_link,0.9312293529510498,0.6660995483398438,9.760807037353516
1669803653.9136298,321,1669803653,913339111,imu_link,0.947053611278534,0.7535519599914551,9.72474479675293
1669803653.918342,322,1669803653,917718615,imu_link,0.9488736987113954,0.6886475086212158,9.742025375366211
1669803653.9236367,323,1669803653,923113750,imu_link,0.933312177658081,0.6775497198104858,9.761498451232912
1669803653.9287977,324,1669803653,928418061,imu_link,0.961335301399231,0.7668502330780029,9.746716499328615
1669803653.9330795,325,1669803653,932743536,imu_link,1.0083041191101074,0.6948946714401245,9.764468193054201
1669803653.9381826,326,1669803653,937914922,imu_link,0.9981054067611694,0.6546065807342529,9.78970718383789
1669803653.9433045,327,1669803653,943140142,imu_link,1.019043803215027,0.7107622027397157,9.755320549011232
1669803653.9485788,328,1669803653,948343583,imu_link,1.0532711744308474,0.6917803287506104,9.765936851501467
1669803653.952894,329,1669803653,952674601,imu_link,1.0191757678985596,0.6308642625808716,9.779304504394531
1669803653.9581852,330,1669803653,957948317,imu_link,1.0381009578704834,0.6467381715774536,9.768174171447756
1669803653.9640193,331,1669803653,963366963,imu_link,1.0667039155960085,0.6733512878417969,9.74240493774414
1669803653.9677877,332,1669803653,967511560,imu_link,1.01651930809021,0.6097472906112671,9.805222511291506
1669803653.9731681,333,1669803653,972884061,imu_link,1.021186113357544,0.6530807614326478,9.80350971221924
1669803653.9783769,334,1669803653,978141581,imu_link,1.0517078638076784,0.691501259803772,9.78729248046875
1669803653.9836936,335,1669803653,983412349,imu_link,1.0440309047698975,0.6368264555931092,9.790210723876953
1669803653.9880378,336,1669803653,987864183,imu_link,1.0181807279586794,0.6312338709831239,9.786998748779297
1669803653.9934397,337,1669803653,993159794,imu_link,1.043222188949585,0.7144298553466797,9.767915725708008
1669803653.998818,338,1669803653,998384713,imu_link,1.0142786502838135,0.6969774365425111,9.761123657226562
1669803654.0030553,339,1669803654,2645861,imu_link,0.9652273654937744,0.6515668630599976,9.780797004699709
1669803654.008228,340,1669803654,7951472,imu_link,0.9909151196479798,0.7017102241516113,9.76937770843506
1669803654.0133977,341,1669803654,13195307,imu_link,0.949163854122162,0.7049064636230469,9.748273849487305
1669803654.0187008,342,1669803654,18456142,imu_link,0.8906905651092529,0.6361727714538574,9.77421283721924
1669803654.0229836,343,1669803654,22839944,imu_link,0.9052767157554628,0.6906941533088685,9.725962638854982
1669803654.0286195,344,1669803654,28358788,imu_link,0.9329188466072084,0.6920759677886963,9.72725009918213
1669803654.032805,345,1669803654,32565258,imu_link,0.8623819947242738,0.6223338842391968,9.764780044555664
1669803654.0379746,346,1669803654,37744036,imu_link,0.8778658509254457,0.6683474779129028,9.725630760192873
1669803654.043762,347,1669803654,43135418,imu_link,0.8664482235908509,0.6907349228858949,9.708171844482422
1669803654.0489552,348,1669803654,48492441,imu_link,0.842397928237915,0.6580376029014589,9.724847793579102
1669803654.0531757,349,1669803654,52751585,imu_link,0.8274797201156616,0.6535618305206299,9.712208747863771
1669803654.0583332,350,1669803654,58035200,imu_link,0.8480984568595887,0.7310993671417236,9.706331253051758
1669803654.0634973,351,1669803654,63209239,imu_link,0.8490076065063477,0.681035339832306,9.707293510437013
1669803654.0687068,352,1669803654,68435058,imu_link,0.8232842087745668,0.6806003451347352,9.72300910949707
1669803654.0731392,353,1669803654,72676257,imu_link,0.8699713349342347,0.7282124161720277,9.693758010864258
1669803654.0787108,354,1669803654,78119710,imu_link,0.8819334506988525,0.7144094705581665,9.708084106445312
1669803654.0841308,355,1669803654,83572357,imu_link,0.8761717677116395,0.662826418876648,9.747904777526857
1669803654.0883875,356,1669803654,87859523,imu_link,0.9197064638137817,0.7436726093292236,9.761555671691896
1669803654.0937974,357,1669803654,93224606,imu_link,0.9821081757545472,0.770756721496582,9.745663642883303
1669803654.098833,358,1669803654,98468982,imu_link,0.9633094072341919,0.7317742109298706,9.779805183410646
1669803654.1030169,359,1669803654,102719573,imu_link,1.0009282827377322,0.7737768888473511,9.765461921691896
1669803654.1083803,360,1669803654,108004650,imu_link,1.0535153150558474,0.8010815978050233,9.758238792419435
1669803654.113342,361,1669803654,113123573,imu_link,1.0306414365768435,0.7327681183815004,9.800086021423342
1669803654.1186278,362,1669803654,118386805,imu_link,1.0424206256866455,0.7420938014984131,9.79379177093506
1669803654.122898,363,1669803654,122628543,imu_link,1.0769020318984988,0.7757099270820619,9.761723518371584
1669803654.1281803,364,1669803654,127932652,imu_link,1.0539654493331911,0.6989332437515259,9.793272972106935
1669803654.1334133,365,1669803654,133180107,imu_link,1.0116817951202393,0.6633544564247132,9.800695419311523
1669803654.1386697,366,1669803654,138481457,imu_link,1.0153453350067139,0.6981168985366821,9.74003314971924
1669803654.1436667,367,1669803654,142958865,imu_link,0.9597849249839784,0.6853120923042298,9.741995811462404
1669803654.149012,368,1669803654,148405772,imu_link,0.9157520532608032,0.6335384845733643,9.764042854309084
1669803654.1529434,369,1669803654,152655500,imu_link,0.9163477420806885,0.7167949080467225,9.733107566833498
1669803654.158216,370,1669803654,157972043,imu_link,0.8984591960906982,0.7037547230720521,9.695794105529787
1669803654.1640518,371,1669803654,163416914,imu_link,0.8276740312576294,0.6687400341033936,9.724926948547365
1669803654.1684136,372,1669803654,167887085,imu_link,0.8246861696243286,0.7089226245880127,9.678198814392092
1669803654.1734881,373,1669803654,173158613,imu_link,0.8527826666831971,0.7287944555282593,9.646645545959474
1669803654.1786203,374,1669803654,178383505,imu_link,0.7695150375366211,0.6283897757530214,9.661224365234375
1669803654.1828384,375,1669803654,182624440,imu_link,0.7865852713584901,0.6213747859001161,9.6546630859375
1669803654.1883745,376,1669803654,187980776,imu_link,0.8232533931732178,0.6537476181983949,9.597667694091797
1669803654.1935847,377,1669803654,193302385,imu_link,0.8080813288688661,0.5767555832862855,9.65048599243164
1669803654.197822,378,1669803654,197602819,imu_link,0.8363167643547059,0.5498448610305786,9.666645050048828
1669803654.2031069,379,1669803654,202907002,imu_link,0.8978483080863954,0.6094520688056947,9.657684326171875
1669803654.2089036,380,1669803654,208309047,imu_link,0.8995872735977173,0.5968960523605347,9.67996120452881
1669803654.2133298,381,1669803654,212681994,imu_link,0.888742506504059,0.5689813494682313,9.71574592590332
1669803654.2185497,382,1669803654,218056983,imu_link,0.959318995475769,0.6298785805702211,9.692117691040039
1669803654.223689,383,1669803654,223338308,imu_link,0.9723330140113832,0.6307291984558105,9.735186576843263
1669803654.2278938,384,1669803654,227550936,imu_link,0.9440284371376039,0.6082264780998231,9.743967056274414
1669803654.2330859,385,1669803654,232679167,imu_link,1.008117437362671,0.6569905877113343,9.757772445678711
1669803654.238789,386,1669803654,238055768,imu_link,1.0328387022018435,0.668236255645752,9.758369445800781
1669803654.2438297,387,1669803654,243345438,imu_link,1.0080373287200928,0.6031388640403749,9.793739318847656
1669803654.2480452,388,1669803654,247616352,imu_link,1.0367217063903809,0.6613968014717103,9.78951644897461
1669803654.253098,389,1669803654,252828767,imu_link,1.0589044094085693,0.713959813117981,9.757266044616701
1669803654.258372,390,1669803654,258056925,imu_link,1.0429228544235232,0.6412588357925415,9.781105041503906
1669803654.263538,391,1669803654,263324649,imu_link,1.0275928974151611,0.6622153520584106,9.760322570800781
1669803654.267688,392,1669803654,267500550,imu_link,1.0404529571533203,0.7556182742118837,9.742746353149414
1669803654.2728596,393,1669803654,272679319,imu_link,0.9922537803649902,0.7010504007339478,9.753070831298828
1669803654.2780702,394,1669803654,277825127,imu_link,0.9792546033859253,0.6781095862388612,9.749550819396974
1669803654.2833624,395,1669803654,283112388,imu_link,1.0065855979919434,0.7207971811294556,9.715356826782227
1669803654.2887,396,1669803654,288357410,imu_link,0.9868757128715516,0.6591995358467103,9.713318824768068
1669803654.2933547,397,1669803654,292784459,imu_link,0.9437249302864076,0.6073691248893739,9.754295349121094
1669803654.2987754,398,1669803654,298205033,imu_link,0.9360417723655702,0.629982888698578,9.719810485839844
1669803654.3037262,399,1669803654,303403677,imu_link,0.9292649030685425,0.6189244985580444,9.723204612731935
1669803654.307945,400,1669803654,307715745,imu_link,0.8826173543930054,0.5291044116020204,9.744788169860842
1669803654.3131635,401,1669803654,312896068,imu_link,0.8459322452545166,0.5792648792266846,9.730105400085451
1669803654.318538,402,1669803654,318150924,imu_link,0.8754302859306337,0.587827503681183,9.722994804382326
1669803654.3236024,403,1669803654,323377071,imu_link,0.8270129561424256,0.5462066531181337,9.709117889404297
1669803654.3280258,404,1669803654,327630028,imu_link,0.8166940808296205,0.58538955450058,9.719452857971193
1669803654.333733,405,1669803654,332979702,imu_link,0.853687345981598,0.6523129940032959,9.688328742980959
1669803654.3388944,406,1669803654,338294831,imu_link,0.8180684447288514,0.602362096309662,9.703140258789062
1669803654.3432357,407,1669803654,342599443,imu_link,0.7951911687850952,0.6157283782958984,9.701828956604006
1669803654.348182,408,1669803654,347846353,imu_link,0.8259357810020448,0.695867955684662,9.68246078491211
1669803654.3533635,409,1669803654,353094240,imu_link,0.811838448047638,0.671883225440979,9.69332790374756
1669803654.3587463,410,1669803654,358427645,imu_link,0.8071551322937012,0.6342220306396484,9.716368675231935
1669803654.362962,411,1669803654,362721277,imu_link,0.8588150143623353,0.6930550336837769,9.700016975402834
1669803654.3682249,412,1669803654,367977673,imu_link,0.9097145795822144,0.6662541627883911,9.675808906555178
1669803654.3734121,413,1669803654,373205847,imu_link,0.91021728515625,0.6335455775260926,9.721345901489258
1669803654.378673,414,1669803654,378440226,imu_link,0.9542502164840698,0.7058244943618774,9.718226432800295
1669803654.3828063,415,1669803654,382624866,imu_link,1.0385986566543581,0.7152409553527832,9.69502353668213
1669803654.3884804,416,1669803654,387978022,imu_link,0.9945544600486756,0.6874178647994995,9.742952346801758
1669803654.3940341,417,1669803654,393378724,imu_link,1.0536465644836426,0.7131718993186952,9.73947048187256
1669803654.3983579,418,1669803654,397712029,imu_link,1.1042929887771609,0.7572203278541566,9.72768783569336
1669803654.4032373,419,1669803654,402920153,imu_link,1.0774174928665163,0.7147604823112489,9.779601097106935
1669803654.4084547,420,1669803654,408152551,imu_link,1.1041078567504883,0.7106618285179139,9.786680221557617
1669803654.4136584,421,1669803654,413390604,imu_link,1.1663843393325808,0.7611380815505981,9.736501693725586
1669803654.4178925,422,1669803654,417659878,imu_link,1.1201268434524538,0.7096375823020936,9.762876510620117
1669803654.4231732,423,1669803654,422932643,imu_link,1.1137989759445193,0.6854743957519531,9.78641128540039
1669803654.4284115,424,1669803654,428139110,imu_link,1.118707060813904,0.7532960176467896,9.749448776245117
1669803654.4341161,425,1669803654,433445559,imu_link,1.0784623622894287,0.7476264834403993,9.738178253173828
1669803654.438394,426,1669803654,437718083,imu_link,1.0261013507843018,0.7142361998558046,9.74996089935303
1669803654.4435608,427,1669803654,442991655,imu_link,0.9991601109504701,0.7813592553138734,9.737131118774414
1669803654.4488237,428,1669803654,448289966,imu_link,0.9690577387809755,0.8081631660461426,9.703006744384766
1669803654.4529066,429,1669803654,452588202,imu_link,0.881855845451355,0.760135591030121,9.724063873291016
1669803654.4581997,430,1669803654,457887089,imu_link,0.893739402294159,0.7528150081634521,9.735761642456055
1669803654.4633582,431,1669803654,463097431,imu_link,0.8776462674140931,0.7695522904396058,9.684296607971193
1669803654.468621,432,1669803654,468362954,imu_link,0.8105769753456117,0.6980145573616029,9.714622497558594
1669803654.472884,433,1669803654,472592413,imu_link,0.7675942182540894,0.7180906534194946,9.698534965515138
1669803654.4780006,434,1669803654,477796089,imu_link,0.7936484813690186,0.7434286475181581,9.685197830200195
1669803654.48314,435,1669803654,482962574,imu_link,0.776047945022583,0.6632195115089418,9.692012786865234
1669803654.4890664,436,1669803654,488329437,imu_link,0.7618075013160707,0.6382841467857362,9.718929290771484
1669803654.493352,437,1669803654,492719589,imu_link,0.7814972400665283,0.7250187397003174,9.680695533752443
1669803654.498501,438,1669803654,498140106,imu_link,0.7968975305557251,0.6855680346488954,9.69860363006592
1669803654.5036054,439,1669803654,503370436,imu_link,0.7798894047737123,0.6552177071571351,9.746865272521974
1669803654.5078325,440,1669803654,507608539,imu_link,0.8589264154434204,0.7048362493515015,9.730398178100586
1669803654.5130467,441,1669803654,512822876,imu_link,0.8655667304992676,0.7123186588287354,9.72317409515381
1669803654.518902,442,1669803654,518196745,imu_link,0.8786704540252686,0.6592640280723573,9.775350570678711
1669803654.524501,443,1669803654,523699902,imu_link,0.9191100597381592,0.7380111813545228,9.770817756652834
1669803654.528428,444,1669803654,527954212,imu_link,0.9560161232948304,0.7663249373435975,9.77853298187256
1669803654.533502,445,1669803654,533199870,imu_link,0.934172511100769,0.7169924378395082,9.783698081970217
1669803654.5387814,446,1669803654,538496022,imu_link,0.9604387879371644,0.7489856481552124,9.775650024414062
1669803654.5429642,447,1669803654,542697480,imu_link,1.0136202573776247,0.7910133600234985,9.762660026550295
1669803654.5482197,448,1669803654,547943149,imu_link,0.9735333919525146,0.7529191970825195,9.765997886657717
1669803654.5539846,449,1669803654,553282249,imu_link,0.9724858403205873,0.775487244129181,9.764327049255373
1669803654.5593863,450,1669803654,558664696,imu_link,0.9923360347747803,0.8028035163879395,9.71795177459717
1669803654.5633278,451,1669803654,562893800,imu_link,0.959434986114502,0.7658818960189819,9.732039451599123
1669803654.5684695,452,1669803654,568112105,imu_link,0.9587388634681703,0.7135099172592163,9.727014541625977
1669803654.573686,453,1669803654,573318013,imu_link,0.9927778244018555,0.7510466575622559,9.689211845397951
1669803654.577857,454,1669803654,577592456,imu_link,0.9603288173675537,0.7233568429946899,9.674525260925295
1669803654.583018,455,1669803654,582851153,imu_link,0.9411149024963379,0.6517359018325806,9.699560165405273
1669803654.588667,456,1669803654,588072978,imu_link,0.958872139453888,0.7044384479522705,9.692976951599123
1669803654.594114,457,1669803654,593497136,imu_link,0.9505125880241395,0.6792614459991455,9.664273262023928
1669803654.5983453,458,1669803654,597791538,imu_link,0.9132683277130127,0.6148384809494019,9.703783988952638
1669803654.6033854,459,1669803654,603024053,imu_link,0.9038351774215698,0.6681886315345765,9.693988800048828
1669803654.608674,460,1669803654,608318500,imu_link,0.9206152558326722,0.6957783102989198,9.682390213012695
1669803654.6138132,461,1669803654,613571860,imu_link,0.8635943531990052,0.6212888956069946,9.739267349243164
1669803654.618086,462,1669803654,617810365,imu_link,0.8647830486297607,0.6376225352287294,9.732548713684084
1669803654.6233466,463,1669803654,622999077,imu_link,0.8748448491096498,0.7350735664367676,9.730303764343263
1669803654.6292567,464,1669803654,628424662,imu_link,0.8238893747329712,0.675921380519867,9.731553077697756
1669803654.633308,465,1669803654,632737617,imu_link,0.80231910943985,0.6985472440719604,9.757768630981445
1669803654.6384833,466,1669803654,638002274,imu_link,0.8366834521293641,0.7927217483520508,9.753493309020998
1669803654.6435857,467,1669803654,643223114,imu_link,0.852434515953064,0.7656912207603456,9.769713401794435
1669803654.648825,468,1669803654,648515403,imu_link,0.7893716096878052,0.7787790894508363,9.76860237121582
1669803654.6530108,469,1669803654,652758832,imu_link,0.8241564035415649,0.8514767289161683,9.74802875518799
1669803654.6586356,470,1669803654,658068043,imu_link,0.8488713502883911,0.8148409128189087,9.756781578063967
1669803654.6640406,471,1669803654,663427060,imu_link,0.8006374239921571,0.7766478061676025,9.779317855834961
1669803654.668268,472,1669803654,667699472,imu_link,0.8646976351737977,0.7945454716682435,9.759096145629883
1669803654.6732583,473,1669803654,672922613,imu_link,0.9381144046783447,0.8104998469352723,9.746506690979006
1669803654.6785076,474,1669803654,678125077,imu_link,0.9011584520339966,0.7238461375236512,9.770194053649904
1669803654.6838622,475,1669803654,683398107,imu_link,0.9319520592689515,0.7527862191200257,9.7508544921875
1669803654.6878598,476,1669803654,687579924,imu_link,0.9587939977645874,0.781246840953827,9.724601745605469
1669803654.6937463,477,1669803654,692870936,imu_link,0.9275546073913574,0.6945236325263978,9.716398239135742
1669803654.6989264,478,1669803654,698222562,imu_link,0.9275986552238465,0.7096485495567323,9.716401100158693
1669803654.7042375,479,1669803654,703509029,imu_link,0.9558578729629517,0.7534889578819276,9.671905517578125
1669803654.708199,480,1669803654,707767641,imu_link,0.9651930928230287,0.6866603493690492,9.69199848175049
1669803654.7135706,481,1669803654,713011120,imu_link,0.9356348514556885,0.6666537523269653,9.713978767395021
1669803654.7185001,482,1669803654,718252494,imu_link,0.9721611738204956,0.7252568006515503,9.681892395019531
1669803654.7230594,483,1669803654,722567793,imu_link,0.9594408869743348,0.6870360374450684,9.678611755371094
1669803654.7287436,484,1669803654,727925768,imu_link,0.8966066837310791,0.64734023809433,9.716336250305178
1669803654.7340412,485,1669803654,733270137,imu_link,0.8964689373970033,0.6754101514816284,9.716571807861328
1669803654.7391148,486,1669803654,738597570,imu_link,0.9051741957664491,0.6300645470619203,9.684165954589844
1669803654.743928,487,1669803654,742891772,imu_link,0.8457999825477601,0.5815841555595399,9.763566970825195
1669803654.7490947,488,1669803654,748347287,imu_link,0.8672434091567993,0.6071345806121826,9.728703498840334
1669803654.7538362,489,1669803654,753475677,imu_link,0.8946723937988281,0.6309469938278198,9.725446701049805
1669803654.7579708,490,1669803654,757676599,imu_link,0.862483024597168,0.5656943917274476,9.770180702209474
1669803654.7630534,491,1669803654,762892911,imu_link,0.8741256594657899,0.5471923947334291,9.770135879516602
1669803654.7683558,492,1669803654,768075672,imu_link,0.9143708944320679,0.6327018141746522,9.747376441955568
1669803654.774088,493,1669803654,773437268,imu_link,0.9042779803276063,0.565794825553894,9.766386032104492
1669803654.7785563,494,1669803654,777877353,imu_link,0.8761941194534302,0.5694395899772645,9.781612396240234
1669803654.7835667,495,1669803654,783155245,imu_link,0.9206398129463197,0.6167368292808534,9.774424552917482
1669803654.788827,496,1669803654,788421133,imu_link,0.9319808483123779,0.5997273921966553,9.748970031738281
1669803654.7933655,497,1669803654,792815474,imu_link,0.8949418663978578,0.5826128125190736,9.786554336547852
1669803654.7982614,498,1669803654,797942373,imu_link,0.9427943229675293,0.6666672229766846,9.7421875
1669803654.803764,499,1669803654,803233903,imu_link,0.9619349837303163,0.6834524869918823,9.726267814636232
1669803654.8093474,500,1669803654,808652870,imu_link,0.9424669742584229,0.6099255084991455,9.763766288757326
1669803654.813659,501,1669803654,812976001,imu_link,0.9550253748893739,0.6751757264137269,9.73637580871582
1669803654.8186293,502,1669803654,818247765,imu_link,0.9940375685691835,0.702738881111145,9.72298812866211
1669803654.823912,503,1669803654,823612849,imu_link,0.9419175982475282,0.6757408976554872,9.733335494995117
1669803654.8281837,504,1669803654,827825856,imu_link,0.957714319229126,0.7026479840278627,9.709754943847656
1669803654.8333747,505,1669803654,833064325,imu_link,0.9994266629219056,0.759290635585785,9.701858520507812
1669803654.8386652,506,1669803654,838362110,imu_link,0.9639980196952821,0.6912349462509155,9.702779769897461
1669803654.844008,507,1669803654,843687652,imu_link,0.9535095691680908,0.7184689044952393,9.728001594543459
1669803654.848231,508,1669803654,847945214,imu_link,0.9759569764137269,0.7904204726219178,9.690957069396974
1669803654.8536196,509,1669803654,853276274,imu_link,0.9252476692199707,0.7490857839584351,9.701762199401857
1669803654.858898,510,1669803654,858616401,imu_link,0.933011829853058,0.6876428723335267,9.737447738647461
1669803654.8630714,511,1669803654,862829364,imu_link,0.9615414142608643,0.7575663924217225,9.726015090942383
1669803654.8686376,512,1669803654,868152191,imu_link,0.9657179117202759,0.722941815853119,9.71667003631592
1669803654.873657,513,1669803654,873381455,imu_link,0.9150235056877137,0.6885433793067933,9.748087882995607
1669803654.877949,514,1669803654,877690729,imu_link,0.9236302375793457,0.7557300925254823,9.752112388610842
1669803654.8831322,515,1669803654,882894363,imu_link,0.9617815613746644,0.7458453178405762,9.73369884490967
1669803654.888918,516,1669803654,888276724,imu_link,0.9179825782775879,0.691910207271576,9.747597694396974
1669803654.8941617,517,1669803654,893690299,imu_link,0.9113806486129761,0.7296425104141235,9.741876602172852
1669803654.8984013,518,1669803654,898006760,imu_link,0.932043492794037,0.7751902341842651,9.73097324371338
1669803654.9037473,519,1669803654,903322999,imu_link,0.8986341953277588,0.7206733226776123,9.746252059936523
1669803654.9079525,520,1669803654,907604608,imu_link,0.914214015007019,0.7117172479629517,9.738752365112305
1669803654.913127,521,1669803654,912893846,imu_link,0.9588427543640137,0.7239542007446289,9.71670150756836
1669803654.9186027,522,1669803654,918273603,imu_link,0.9548569321632386,0.6505612134933472,9.705708503723146
1669803654.924296,523,1669803654,923631252,imu_link,0.9346190690994263,0.6489739418029785,9.74393081665039
1669803654.9285479,524,1669803654,927950998,imu_link,0.9946532249450684,0.6997573971748353,9.71532726287842
1669803654.933711,525,1669803654,933315078,imu_link,1.0028576850891113,0.6435917615890503,9.694924354553224
1669803654.9389768,526,1669803654,938632840,imu_link,0.9606226086616517,0.6132071614265443,9.727750778198242
1669803654.9431138,527,1669803654,942846761,imu_link,0.9979689717292787,0.655780851840973,9.696382522583008
1669803654.9484007,528,1669803654,948157195,imu_link,1.0198986530303955,0.6597264409065248,9.679963111877443
1669803654.953819,529,1669803654,953377031,imu_link,0.9886566400527954,0.6060568690299989,9.719928741455078
1669803654.9579468,530,1669803654,957660826,imu_link,1.0073208808898926,0.6544226408004761,9.722694396972656
1669803654.9631472,531,1669803654,962890307,imu_link,1.0452660322189333,0.6985224485397339,9.672909736633303
1669803654.9683087,532,1669803654,968060606,imu_link,0.9864070415496826,0.6515769958496094,9.71537494659424
1669803654.9736896,533,1669803654,973370751,imu_link,0.982965648174286,0.6801406145095825,9.717782974243164
1669803654.9779,534,1669803654,977607513,imu_link,1.0024596452713015,0.7141078114509584,9.684846878051758
1669803654.9831378,535,1669803654,982838501,imu_link,0.9489653706550599,0.682881534099579,9.717971801757812
1669803654.988678,536,1669803654,988179011,imu_link,0.9155091047286987,0.6589733362197876,9.73179817199707
1669803654.9941301,537,1669803654,993538311,imu_link,0.9477131962776185,0.7237915992736816,9.707164764404297
1669803654.9984758,538,1669803654,997800801,imu_link,0.9310154914855957,0.7004176974296571,9.724024772644045
1669803655.0037723,539,1669803655,3215629,imu_link,0.8917798399925233,0.6545111536979676,9.73646640777588
1669803655.0091915,540,1669803655,8593920,imu_link,0.9057429432868959,0.730406641960144,9.708811759948732
1669803655.0136106,541,1669803655,12885218,imu_link,0.909325659275055,0.7041501998901367,9.700884819030763
1669803655.0184371,542,1669803655,18094003,imu_link,0.8751248121261597,0.6910996437072754,9.758828163146974
1669803655.023974,543,1669803655,23430197,imu_link,0.9053648710250854,0.7589518427848817,9.726539611816406
1669803655.027892,544,1669803655,27673089,imu_link,0.9217392802238465,0.7653056383132935,9.712326049804688
1669803655.0332558,545,1669803655,32950341,imu_link,0.9020164608955384,0.6958789825439453,9.759633064270021
1669803655.039036,546,1669803655,38346463,imu_link,0.9309417605400087,0.7140252590179443,9.75013542175293
1669803655.0433755,547,1669803655,42660666,imu_link,0.9886595606803895,0.733458399772644,9.723483085632326
1669803655.0482738,548,1669803655,47864321,imu_link,0.9722055792808534,0.6750567555427552,9.760252952575685
1669803655.0535293,549,1669803655,53175809,imu_link,0.9652392268180848,0.6802685260772705,9.759558677673342
1669803655.0587218,550,1669803655,58453129,imu_link,1.0355443954467773,0.6996374130249023,9.75774669647217
1669803655.0630183,551,1669803655,62697582,imu_link,1.0315219163894656,0.6506061553955078,9.776248931884766
1669803655.0684762,552,1669803655,67929195,imu_link,1.0147757530212402,0.6213777661323548,9.81420421600342
1669803655.0734923,553,1669803655,73164487,imu_link,1.067467212677002,0.6998565196990967,9.786841392517092
1669803655.0789316,554,1669803655,78567039,imu_link,1.0758752822875977,0.6752042770385742,9.77650260925293
1669803655.0831296,555,1669803655,82810241,imu_link,1.0548298358917236,0.6300989389419556,9.812560081481935
1669803655.0883627,556,1669803655,88113998,imu_link,1.0734269618988037,0.6993233561515809,9.7774658203125
1669803655.0937283,557,1669803655,93412826,imu_link,1.0968401432037354,0.6772685050964355,9.772070884704592
1669803655.0980434,558,1669803655,97760139,imu_link,1.0456068515777588,0.6383865475654603,9.75990104675293
1669803655.1033866,559,1669803655,103033778,imu_link,1.062812089920044,0.6750823259353638,9.741358757019045
1669803655.1085768,560,1669803655,108310073,imu_link,1.1013957262039187,0.6758929491043091,9.723651885986328
1669803655.1132405,561,1669803655,112809877,imu_link,1.0393178462982178,0.6102648973464966,9.726642608642578
1669803655.1187456,562,1669803655,118030197,imu_link,1.047471284866333,0.6408288478851318,9.714122772216797
1669803655.1241674,563,1669803655,123422722,imu_link,1.0539789199829102,0.7045383453369141,9.68172359466553
1669803655.1285243,564,1669803655,127832830,imu_link,1.0182569026947021,0.7009930610656738,9.689327239990234
1669803655.1337323,565,1669803655,133207604,imu_link,0.9903882741928101,0.6966641545295716,9.715586662292482
1669803655.1391892,566,1669803655,138598646,imu_link,1.043675422668457,0.7739784121513368,9.689666748046875
1669803655.1436272,567,1669803655,142949061,imu_link,1.0380058288574219,0.7667403221130371,9.708627700805664
1669803655.148641,568,1669803655,148199576,imu_link,0.9864996075630189,0.7589198946952821,9.706011772155763
1669803655.15387,569,1669803655,153545466,imu_link,1.0013040304183962,0.824301302433014,9.701831817626953
1669803655.158127,570,1669803655,157832111,imu_link,1.0259802341461182,0.793122708797455,9.715398788452148
1669803655.1639626,571,1669803655,163150708,imu_link,0.9831012487411499,0.7448952198028564,9.733362197875977
1669803655.1690817,572,1669803655,168467488,imu_link,1.0137978792190554,0.7644444704055786,9.707316398620607
1669803655.1731825,573,1669803655,172751457,imu_link,1.0490152835845947,0.7623746991157533,9.701151847839357
1669803655.1783972,574,1669803655,178034098,imu_link,1.0167773962020876,0.7024931907653809,9.750473022460938
1669803655.1836152,575,1669803655,183364007,imu_link,0.9785760045051576,0.7505099773406982,9.756646156311037
1669803655.1889007,576,1669803655,188614064,imu_link,1.03007709980011,0.7996792793273926,9.750385284423828
1669803655.1931152,577,1669803655,192807618,imu_link,1.0101479291915896,0.7650627493858339,9.78260135650635
1669803655.1983554,578,1669803655,198070521,imu_link,0.9827489852905273,0.810449481010437,9.776982307434084
1669803655.203741,579,1669803655,203355934,imu_link,1.0046460628509521,0.8641748428344727,9.775902748107912
1669803655.207947,580,1669803655,207768115,imu_link,0.9832850694656372,0.798631250858307,9.784879684448242
1669803655.213226,581,1669803655,212959882,imu_link,0.9601182341575624,0.7445266246795654,9.791484832763672
1669803655.2185233,582,1669803655,218260263,imu_link,0.9896763563156128,0.8045603632926942,9.783413887023928
1669803655.2237017,583,1669803655,223505278,imu_link,0.9926496744155884,0.7268908023834229,9.77622699737549
1669803655.2280576,584,1669803655,227825642,imu_link,0.9705970287322998,0.6376853585243226,9.781883239746094
1669803655.2340024,585,1669803655,233238818,imu_link,1.0128629207611084,0.6533498764038086,9.770166397094727
1669803655.2392154,586,1669803655,238534690,imu_link,1.0152158737182617,0.6447151303291322,9.73923110961914
1669803655.2433956,587,1669803655,242787548,imu_link,0.9945033192634584,0.5777506828308105,9.759722709655763
1669803655.2486813,588,1669803655,248106117,imu_link,0.9715487957000732,0.6349928379058838,9.729628562927248
1669803655.2539403,589,1669803655,253427319,imu_link,1.0257537364959717,0.6769943237304688,9.687408447265625
1669803655.2582557,590,1669803655,257730929,imu_link,1.0088895559310915,0.6151486039161683,9.703785896301271
1669803655.264622,591,1669803655,263116611,imu_link,1.0122106075286865,0.6620997786521913,9.693453788757326
1669803655.2689178,592,1669803655,268440969,imu_link,1.089242696762085,0.7096969485282899,9.647288322448732
1669803655.2730026,593,1669803655,272679185,imu_link,1.055361270904541,0.6722983717918397,9.656082153320312
1669803655.2784662,594,1669803655,278046114,imu_link,1.0097278356552126,0.6445754766464233,9.690359115600586
1669803655.283661,595,1669803655,283342962,imu_link,1.0278567075729372,0.6843632459640503,9.642813682556154
1669803655.2888017,596,1669803655,288600655,imu_link,1.0175690650939941,0.6225868463516235,9.663003921508789
1669803655.2936373,597,1669803655,292888035,imu_link,0.9882296323776245,0.5920289754867554,9.728113174438477
1669803655.2989087,598,1669803655,298357628,imu_link,1.0202350616455078,0.6545620560646058,9.697027206420898
1669803655.3032446,599,1669803655,302735938,imu_link,1.010324835777283,0.6407275795936586,9.714561462402344
1669803655.3083181,600,1669803655,307952318,imu_link,0.9632775783538818,0.6093831658363343,9.75843143463135
1669803655.313399,601,1669803655,313130566,imu_link,0.9712311625480653,0.6512104272842407,9.734663009643555
1669803655.3186758,602,1669803655,318390788,imu_link,0.9749534726142884,0.7045537233352661,9.733653068542482
1669803655.3232474,603,1669803655,322649461,imu_link,0.9446368813514711,0.6504614353179932,9.767622947692873
1669803655.328062,604,1669803655,327833245,imu_link,0.9261822104454042,0.6615708470344545,9.767710685729982
1669803655.3334062,605,1669803655,333023884,imu_link,0.9406899809837342,0.6986198425292969,9.738136291503906
1669803655.338413,606,1669803655,338231903,imu_link,0.8899185061454774,0.6538422703742982,9.75112533569336
1669803655.3436892,607,1669803655,343540684,imu_link,0.892484486103058,0.6377874612808228,9.764285087585451
1669803655.3480587,608,1669803655,347838367,imu_link,0.8985607624053955,0.7096351385116577,9.713422775268555
1669803655.3533077,609,1669803655,353059704,imu_link,0.8844830989837646,0.66755211353302,9.725016593933107
1669803655.3586571,610,1669803655,358376267,imu_link,0.8579351902008057,0.6371166706085205,9.730191230773928
1669803655.3638635,611,1669803655,363591975,imu_link,0.8822889924049379,0.6822748184204102,9.687150955200195
1669803655.3681757,612,1669803655,367837608,imu_link,0.8926092386245728,0.6637552976608276,9.67439937591553
1669803655.373316,613,1669803655,373031805,imu_link,0.8475877046585083,0.6366105675697328,9.697155952453615
1669803655.3792048,614,1669803655,378397093,imu_link,0.8692957162857056,0.7011693120002748,9.684799194335938
1669803655.3834226,615,1669803655,382680598,imu_link,0.8943752646446229,0.7232999801635742,9.641518592834474
1669803655.3887265,616,1669803655,388091369,imu_link,0.8664121627807617,0.6633880734443666,9.694888114929201
1669803655.3940048,617,1669803655,393443144,imu_link,0.9137412309646606,0.6894487142562866,9.69588375091553
1669803655.3984544,618,1669803655,397785005,imu_link,0.9533358812332153,0.717160701751709,9.697608947753906
1669803655.4035301,619,1669803655,403070064,imu_link,0.9335876703262329,0.6553024053573608,9.719058990478516
1669803655.408833,620,1669803655,408401021,imu_link,0.9396816492080688,0.6705772876739502,9.73939323425293
1669803655.4129655,621,1669803655,412650854,imu_link,0.9863635301589966,0.7291001081466675,9.698644638061523
1669803655.418302,622,1669803655,417955509,imu_link,0.9799111485481263,0.7126319408416748,9.734150886535646
1669803655.423805,623,1669803655,423366043,imu_link,1.0167258977890017,0.6913312673568726,9.757687568664553
1669803655.428664,624,1669803655,427800990,imu_link,1.0697776079177859,0.7796815037727357,9.745656967163086
1669803655.4333825,625,1669803655,433001053,imu_link,1.0960125923156738,0.7597794532775879,9.771648406982422
1669803655.438533,626,1669803655,438201360,imu_link,1.0913498401641846,0.7133638262748719,9.807875633239748
1669803655.4436228,627,1669803655,443441722,imu_link,1.1021448373794558,0.7856334447860718,9.78266716003418
1669803655.448747,628,1669803655,448637163,imu_link,1.130324125289917,0.7858854532241821,9.747058868408203
1669803655.4537654,629,1669803655,453036019,imu_link,1.0830841064453125,0.725084662437439,9.772476196289062
1669803655.4589615,630,1669803655,458375618,imu_link,1.113792896270752,0.7313243746757508,9.764171600341797
1669803655.4631872,631,1669803655,462626733,imu_link,1.149991750717163,0.7569581866264344,9.733306884765625
1669803655.468562,632,1669803655,467921985,imu_link,1.1028938293457031,0.7048463225364686,9.760643959045412
1669803655.4738052,633,1669803655,473255043,imu_link,1.1272228956222536,0.706287145614624,9.735843658447266
1669803655.4791334,634,1669803655,478609010,imu_link,1.1399517059326172,0.7534341216087342,9.698383331298828
1669803655.4835894,635,1669803655,482911314,imu_link,1.0922765731811523,0.7382827997207642,9.719252586364748
1669803655.4890673,636,1669803655,488285077,imu_link,1.0414005517959597,0.7232391238212587,9.72695541381836
1669803655.4941938,637,1669803655,493617139,imu_link,1.0758117437362673,0.7979151010513306,9.683130264282227
1669803655.4986334,638,1669803655,497993667,imu_link,1.0179295539855957,0.7735480666160585,9.697324752807617
1669803655.5041122,639,1669803655,503386154,imu_link,0.9879207015037538,0.7454894781112671,9.721685409545898
1669803655.5084436,640,1669803655,507733144,imu_link,1.0061312913894656,0.7901862263679506,9.67965316772461
1669803655.5136693,641,1669803655,513048571,imu_link,1.0133644342422488,0.7620700597763062,9.678905487060547
1669803655.5196161,642,1669803655,518936367,imu_link,0.946786642074585,0.7226521372795106,9.717353820800781
1669803655.5233781,643,1669803655,522973571,imu_link,0.9486652016639711,0.7849298715591431,9.710379600524904
1669803655.5284903,644,1669803655,528179075,imu_link,0.9443930387496948,0.7795419692993164,9.692677497863771
1669803655.5337005,645,1669803655,533412590,imu_link,0.8981736302375795,0.712028205394745,9.723346710205078
1669803655.5379848,646,1669803655,537700493,imu_link,0.8964096903800965,0.7499183416366577,9.736772537231445
1669803655.543115,647,1669803655,542917366,imu_link,0.9523696899414062,0.7589802742004395,9.703157424926758
1669803655.5491562,648,1669803655,548565618,imu_link,0.9383883476257324,0.6977941393852235,9.734169960021974
1669803655.5548716,649,1669803655,554389986,imu_link,0.9295180439949037,0.6721060276031494,9.757470130920412
1669803655.5591285,650,1669803655,558669998,imu_link,0.9921072721481323,0.7209152579307557,9.736775398254396
1669803655.5631564,651,1669803655,562866322,imu_link,0.9874674677848817,0.6519050598144531,9.769400596618654
1669803655.5685449,652,1669803655,568200397,imu_link,1.009296536445618,0.6063638925552368,9.770023345947266
1669803655.5734892,653,1669803655,573322567,imu_link,1.0291049480438232,0.6763966083526611,9.724845886230469
1669803655.5781903,654,1669803655,577859603,imu_link,1.05565083026886,0.660318672657013,9.744835853576662
1669803655.5837913,655,1669803655,583196658,imu_link,1.0332659482955935,0.620067059993744,9.745697021484375
1669803655.589299,656,1669803655,588582298,imu_link,1.0574198961257937,0.6974906325340272,9.728539466857912
1669803655.5934649,657,1669803655,592816116,imu_link,1.094395637512207,0.7261900901794434,9.74822521209717
1669803655.5989058,658,1669803655,598317152,imu_link,1.0517052412033083,0.6854133009910585,9.788968086242678
1669803655.604308,659,1669803655,603741827,imu_link,1.0709756612777712,0.7459033131599427,9.753859519958498
1669803655.608586,660,1669803655,608085338,imu_link,1.1074913740158083,0.7750908732414247,9.732101440429688
1669803655.6140344,661,1669803655,613423430,imu_link,1.047460198402405,0.7022814750671387,9.756157875061037
1669803655.6184814,662,1669803655,617874906,imu_link,1.024534344673157,0.7028648853302002,9.771611213684084
1669803655.6238027,663,1669803655,623170899,imu_link,1.050600528717041,0.724972128868103,9.729065895080568
1669803655.6291676,664,1669803655,628630809,imu_link,1.0366921424865723,0.646523416042328,9.767244338989258
1669803655.6334944,665,1669803655,632931033,imu_link,0.9902167916297914,0.6280807256698608,9.783538818359375
1669803655.6388583,666,1669803655,638235747,imu_link,1.0222504138946533,0.6791760325431825,9.739270210266115
1669803655.6442175,667,1669803655,643590173,imu_link,1.0036100149154665,0.6480688452720643,9.728583335876467
1669803655.6484447,668,1669803655,647847955,imu_link,0.9756197929382324,0.6245229244232178,9.758207321166992
1669803655.6537676,669,1669803655,653153151,imu_link,0.9619575142860414,0.7078022956848145,9.7132043838501
1669803655.6587327,670,1669803655,658365064,imu_link,0.9744574427604676,0.711288332939148,9.716976165771484
1669803655.6639702,671,1669803655,663675831,imu_link,0.930462121963501,0.6641637682914735,9.732072830200195
1669803655.6685655,672,1669803655,668034930,imu_link,0.9415169954299927,0.7389513254165649,9.707077980041506
1669803655.673575,673,1669803655,673204075,imu_link,0.9928197860717773,0.7559412717819214,9.693154335021974
1669803655.6788392,674,1669803655,678548141,imu_link,0.9340897202491761,0.6879607439041138,9.725575447082521
1669803655.683644,675,1669803655,682876974,imu_link,0.9713805913925171,0.679680585861206,9.713878631591797
1669803655.6888905,676,1669803655,688355024,imu_link,1.0356534719467165,0.7409480214118959,9.712340354919435
1669803655.6939406,677,1669803655,693638012,imu_link,1.002105951309204,0.6735737323760986,9.722114562988281
1669803655.6982474,678,1669803655,697894004,imu_link,1.005378603935242,0.6661562919616699,9.741757392883303
1669803655.703553,679,1669803655,703163504,imu_link,1.0295827388763428,0.7637973427772523,9.702321052551271
1669803655.7089243,680,1669803655,708484688,imu_link,1.036846995353699,0.7124916315078735,9.75741481781006
1669803655.7132697,681,1669803655,712816500,imu_link,1.0322824716567995,0.6852676272392274,9.77613925933838
1669803655.7184095,682,1669803655,718109934,imu_link,1.0426796674728396,0.7771552205085756,9.70968246459961
1669803655.7236388,683,1669803655,723418106,imu_link,1.0542479753494265,0.7494962811470033,9.741744995117188
1669803655.727901,684,1669803655,727691123,imu_link,1.0196160078048708,0.7082437872886659,9.780994415283203
1669803655.7333636,685,1669803655,732899861,imu_link,1.0179781913757324,0.7410811185836792,9.768058776855469
1669803655.7385533,686,1669803655,738114415,imu_link,1.0421106815338135,0.7177935242652894,9.748294830322266
1669803655.744132,687,1669803655,743431029,imu_link,0.9934782981872559,0.6594890952110292,9.769171714782717
1669803655.7482991,688,1669803655,747742892,imu_link,0.9766298532485962,0.7109039425849916,9.76445198059082
1669803655.7534099,689,1669803655,753013843,imu_link,0.9743465781211854,0.7501790523529053,9.72297763824463
1669803655.7585661,690,1669803655,758339808,imu_link,0.954302191734314,0.6938194036483765,9.77509880065918
1669803655.764514,691,1669803655,763891453,imu_link,0.9069742560386659,0.7300426363945008,9.759748458862305
1669803655.768725,692,1669803655,768199192,imu_link,0.9314225912094116,0.7769265770912172,9.720078468322756
1669803655.7743027,693,1669803655,773637775,imu_link,0.923060715198517,0.7127013802528382,9.739065170288086
1669803655.7785866,694,1669803655,777969541,imu_link,0.9028373956680298,0.6623874306678773,9.759066581726076
1669803655.7839453,695,1669803655,783365192,imu_link,0.9494180083274842,0.6803930997848511,9.719035148620607
1669803655.789162,696,1669803655,788661302,imu_link,0.9341451525688172,0.6037712097167969,9.718415260314943
1669803655.7934341,697,1669803655,792936073,imu_link,0.8811085224151611,0.5674329400062562,9.745529174804688
1669803655.7984917,698,1669803655,798166322,imu_link,0.9257735013961792,0.6087352633476258,9.682497978210451
1669803655.8037672,699,1669803655,803472667,imu_link,0.9044857621192933,0.6021460294723511,9.686433792114258
1669803655.807937,700,1669803655,807727234,imu_link,0.875046193599701,0.5445528030395508,9.66575813293457
1669803655.8132486,701,1669803655,812949470,imu_link,0.9165067076683046,0.6270656585693359,9.653532028198242
1669803655.8186133,702,1669803655,818237493,imu_link,0.9568752646446229,0.6584622859954834,9.655261039733888
1669803655.8238451,703,1669803655,823617117,imu_link,0.9249876141548158,0.635169804096222,9.66285514831543
1669803655.8280559,704,1669803655,827881332,imu_link,0.9443188905715942,0.677444577217102,9.667525291442873
1669803655.8335466,705,1669803655,833217439,imu_link,0.9599319696426392,0.703348219394684,9.663366317749023
1669803655.8393283,706,1669803655,838588074,imu_link,0.9247567653656006,0.6323261260986328,9.653967857360842
1669803655.843448,707,1669803655,842806932,imu_link,0.9114372730255127,0.6098394989967347,9.693363189697266
1669803655.8483865,708,1669803655,848098340,imu_link,0.9296117424964906,0.6694765090942383,9.677898406982422
1669803655.8536215,709,1669803655,853241818,imu_link,0.9205960035324097,0.6097479462623597,9.716312408447266
1669803655.858778,710,1669803655,858479498,imu_link,0.9030299186706543,0.5546129941940308,9.75738525390625
1669803655.8629663,711,1669803655,862700980,imu_link,0.938561201095581,0.60479074716568,9.750005722045898
1669803655.8690321,712,1669803655,868068425,imu_link,0.9238062500953675,0.6183146834373475,9.76350498199463
1669803655.8739963,713,1669803655,873355552,imu_link,0.8865883350372314,0.5992021560668945,9.768974304199219
1669803655.8792977,714,1669803655,878704847,imu_link,0.9128522276878358,0.6559115648269653,9.774333953857422
1669803655.883644,715,1669803655,883037327,imu_link,0.9149103164672852,0.6763378381729126,9.76449966430664
1669803655.888984,716,1669803655,888339315,imu_link,0.8732315301895142,0.6377222537994385,9.802820205688477
1669803655.8944714,717,1669803655,893752672,imu_link,0.8911305069923402,0.6583504676818848,9.765825271606445
1669803655.8986607,718,1669803655,898073128,imu_link,0.9087054133415223,0.7007858753204346,9.7602014541626
1669803655.9040956,719,1669803655,903434003,imu_link,0.8718801736831665,0.6310162544250488,9.776461601257326
1669803655.908456,720,1669803655,907768836,imu_link,0.8425624370574951,0.608529031276703,9.779012680053711
1669803655.9137783,721,1669803655,913135554,imu_link,0.9019339680671693,0.6284540295600892,9.737009048461914
1669803655.9188914,722,1669803655,918421847,imu_link,0.862321138381958,0.5933032631874086,9.750159263610842
1669803655.92323,723,1669803655,922751851,imu_link,0.8442354202270508,0.5847197771072388,9.752875328063967
1669803655.9283857,724,1669803655,928006343,imu_link,0.8892152309417725,0.6376714706420898,9.719805717468263
1669803655.9335988,725,1669803655,933233086,imu_link,0.9129393100738525,0.5921264290809632,9.698132514953615
1669803655.939176,726,1669803655,938646854,imu_link,0.8725607991218568,0.5865907073020936,9.74578380584717
1669803655.9432945,727,1669803655,942962074,imu_link,0.9268049001693726,0.633716642856598,9.710248947143555
1669803655.9491088,728,1669803655,948448216,imu_link,0.9806962013244629,0.6258682608604432,9.70567512512207
1669803655.9532626,729,1669803655,952806323,imu_link,0.9414167404174805,0.5675424933433534,9.710447311401367
1669803655.9585502,730,1669803655,958062180,imu_link,0.9842198491096498,0.5907265543937684,9.702083587646484
1669803655.9637184,731,1669803655,963323351,imu_link,0.9869015812873841,0.6225163340568544,9.709478378295898
1669803655.9691093,732,1669803655,968689869,imu_link,0.9840705394744873,0.5713382959365845,9.732033729553224
1669803655.9732568,733,1669803655,972892326,imu_link,0.9816263914108276,0.5914694666862489,9.718868255615234
1669803655.9786003,734,1669803655,978172405,imu_link,1.016324520111084,0.658886194229126,9.713409423828125
1669803655.983809,735,1669803655,983427113,imu_link,0.9950909614562988,0.6156985759735107,9.763617515563967
1669803655.9882843,736,1669803655,987822409,imu_link,0.9700338244438172,0.6445351243019105,9.775257110595703
1669803655.9934719,737,1669803655,993098236,imu_link,1.0109485387802126,0.7045665979385376,9.74315071105957
1669803655.9991853,738,1669803655,998418729,imu_link,0.9658982753753662,0.6793445348739624,9.775251388549805
1669803656.0034173,739,1669803656,2739695,imu_link,0.9150208830833436,0.6638113856315614,9.770252227783203
1669803656.0086892,740,1669803656,8042535,imu_link,0.9329950213432313,0.70558899641037,9.736365318298342
1669803656.014133,741,1669803656,13535679,imu_link,0.9149377942085267,0.699591100215912,9.757308959960938
1669803656.0184772,742,1669803656,17824165,imu_link,0.8821659684181214,0.6187074184417725,9.77259922027588
1669803656.0235982,743,1669803656,23078548,imu_link,0.8980107307434082,0.6469116806983949,9.752613067626953
1669803656.0291066,744,1669803656,28409356,imu_link,0.8908483386039735,0.6696876883506776,9.716454505920412
1669803656.0334268,745,1669803656,32787267,imu_link,0.8780950903892518,0.5829461812973022,9.759203910827638
1669803656.0400445,746,1669803656,38207771,imu_link,0.8633644580841064,0.6193274259567261,9.734082221984865
1669803656.0438926,747,1669803656,43439254,imu_link,0.89598548412323,0.6368051171302797,9.718351364135742
1669803656.0491652,748,1669803656,48786245,imu_link,0.8645122051239014,0.5878068208694458,9.739138603210451
1669803656.0534844,749,1669803656,53100429,imu_link,0.8630452752113343,0.5619275569915771,9.72500991821289
1669803656.0587723,750,1669803656,58424737,imu_link,0.9154744148254395,0.6122125983238221,9.702432632446289
1669803656.0630188,751,1669803656,62725875,imu_link,0.8770745992660522,0.5511161088943481,9.724928855895998
1669803656.068162,752,1669803656,67999579,imu_link,0.8893489837646484,0.5002554059028627,9.757233619689943
1669803656.0740592,753,1669803656,73451411,imu_link,0.9195584654808046,0.5591461062431337,9.709382057189943
1669803656.078328,754,1669803656,77905281,imu_link,0.9006983637809755,0.5279029607772827,9.725772857666016
1669803656.0835705,755,1669803656,83205415,imu_link,0.8656948804855347,0.4865989983081818,9.755449295043945
1669803656.0889668,756,1669803656,88666745,imu_link,0.8781252503395082,0.5548267364501953,9.733307838439943
1669803656.0932,757,1669803656,92881721,imu_link,0.9115951061248779,0.5750061273574829,9.723290443420412
1669803656.098508,758,1669803656,98145736,imu_link,0.9030153751373291,0.5197444558143617,9.758350372314453
1669803656.103783,759,1669803656,103470205,imu_link,0.8977937698364258,0.6289382576942445,9.729832649230959
1669803656.10812,760,1669803656,107818625,imu_link,0.9346367120742798,0.6520551443099976,9.722458839416506
1669803656.1133647,761,1669803656,113023490,imu_link,0.8997122049331665,0.6139205694198608,9.750914573669435
1669803656.118593,762,1669803656,118299167,imu_link,0.8627654910087587,0.6418352723121644,9.74270248413086
1669803656.1242044,763,1669803656,123685971,imu_link,0.8849337697029115,0.711617410182953,9.722436904907227
1669803656.1285048,764,1669803656,128061179,imu_link,0.8462244868278505,0.6718562245368959,9.74325466156006
1669803656.1337235,765,1669803656,133350332,imu_link,0.8489708304405214,0.632398545742035,9.756192207336428
1669803656.1391246,766,1669803656,138716730,imu_link,0.8878936767578125,0.7246205806732178,9.718589782714844
1669803656.1434073,767,1669803656,142921397,imu_link,0.879225790500641,0.6961359381675721,9.729411125183107
1669803656.1485658,768,1669803656,148181665,imu_link,0.8623371720314027,0.6756081581115723,9.722081184387209
1669803656.1539903,769,1669803656,153577627,imu_link,0.909824311733246,0.7386347055435181,9.70073986053467
1669803656.1583393,770,1669803656,157862196,imu_link,0.9193549752235414,0.75206458568573,9.674551010131836
1669803656.1645164,771,1669803656,163278984,imu_link,0.90625,0.6775744557380677,9.701971054077148
1669803656.1692011,772,1669803656,168682920,imu_link,0.9160094261169434,0.7311809062957764,9.677221298217773
1669803656.1732502,773,1669803656,172888558,imu_link,0.9540458321571351,0.717766284942627,9.67367458343506
1669803656.1786134,774,1669803656,178243317,imu_link,0.9359272122383119,0.6394815444946289,9.708302497863771
1669803656.1838572,775,1669803656,183429456,imu_link,0.9559487700462342,0.6344813108444214,9.707221031188967
1669803656.188154,776,1669803656,187756677,imu_link,1.0047868490219118,0.6646550297737123,9.701468467712404
1669803656.1933107,777,1669803656,193003048,imu_link,0.9916787147521973,0.5685329437255859,9.72024440765381
1669803656.1989477,778,1669803656,198363481,imu_link,0.9516363739967347,0.5955620408058168,9.750397682189943
1669803656.2042477,779,1669803656,203774356,imu_link,1.0020049810409548,0.6349791884422303,9.719694137573242
1669803656.2084868,780,1669803656,208072457,imu_link,0.994876503944397,0.5941670536994935,9.76119613647461
1669803656.213599,781,1669803656,213342712,imu_link,0.9691386222839355,0.575738787651062,9.805686950683594
1669803656.2190144,782,1669803656,218709111,imu_link,1.0187240839004519,0.6131427884101869,9.766369819641115
1669803656.223212,783,1669803656,222991634,imu_link,1.0184264183044434,0.6281462311744691,9.759406089782717
1669803656.2287183,784,1669803656,228385730,imu_link,0.9752447605133057,0.5943678617477417,9.793665885925295
1669803656.233944,785,1669803656,233689304,imu_link,0.9881943464279175,0.6569721698760986,9.762669563293459
1669803656.2383966,786,1669803656,238036192,imu_link,1.0059092044830322,0.6638314127922059,9.74962902069092
1669803656.243565,787,1669803656,243248912,imu_link,0.949529767036438,0.6062383055686952,9.75904655456543
1669803656.2489045,788,1669803656,248626114,imu_link,0.97100967168808,0.6327273249626161,9.751496315002443
1669803656.2532928,789,1669803656,252965667,imu_link,0.9771395325660707,0.6679850220680238,9.70975971221924
1669803656.2589421,790,1669803656,258358140,imu_link,0.9165986180305482,0.5944979190826416,9.730691909790039
1669803656.2644734,791,1669803656,263770991,imu_link,0.9021844863891602,0.6217668056488037,9.729803085327148
1669803656.2689967,792,1669803656,268198572,imu_link,0.932273268699646,0.6720036268234253,9.697036743164062
1669803656.2741065,793,1669803656,273548462,imu_link,0.9079514741897583,0.6033147573471069,9.715398788452148
1669803656.2787042,794,1669803656,277879431,imu_link,0.827004373073578,0.6346842050552368,9.693990707397461
1669803656.2842026,795,1669803656,283377534,imu_link,0.8518571853637695,0.6635551452636719,9.658143043518068
1669803656.2894735,796,1669803656,288833726,imu_link,0.8194990158081055,0.6728312969207764,9.66212272644043
1669803656.2935896,797,1669803656,293104556,imu_link,0.7872097492218018,0.6443666219711304,9.698978424072266
1669803656.2996745,798,1669803656,298406031,imu_link,0.8128912448883057,0.726964294910431,9.667413711547852
1669803656.303377,799,1669803656,302822617,imu_link,0.8274722099304199,0.7425181865692139,9.667577743530273
1669803656.3084266,800,1669803656,308073838,imu_link,0.7919512987136841,0.6971513628959657,9.73008441925049
1669803656.3136716,801,1669803656,313324770,imu_link,0.8028124570846558,0.7542516589164735,9.712759017944336
1669803656.318936,802,1669803656,318666928,imu_link,0.8369394540786743,0.7617854475975038,9.696764945983888
1669803656.3231874,803,1669803656,322866754,imu_link,0.804069995880127,0.7099912762641908,9.730492591857912
1669803656.3283732,804,1669803656,328103620,imu_link,0.813984751701355,0.6933571100234985,9.725168228149414
1669803656.3338122,805,1669803656,333338923,imu_link,0.9063167572021484,0.6927334070205688,9.73714828491211
1669803656.3394144,806,1669803656,338707161,imu_link,0.927569329738617,0.6287729740142822,9.757928848266602
