Time,header.seq,header.stamp.secs,header.stamp.nsecs,header.frame_id,vector.x,vector.y,vector.z
1669803653.5993316,258,1669803653,598275902,imu_link,0.004532090853899718,-0.016628209501504898,0.0139154763892293
1669803653.6027966,259,1669803653,602483129,imu_link,0.004989002365618945,-0.019317021593451503,0.022224396467208862
1669803653.6080773,260,1669803653,607763796,imu_link,0.003463050583377481,-0.022663183510303497,0.011724960990250112
1669803653.6134577,261,1669803653,613048112,imu_link,0.000653323659207672,-0.02094283699989319,0.009243195876479149
1669803653.6186805,262,1669803653,618359718,imu_link,0.0006914976402185858,-0.01897585019469261,0.022804765030741695
1669803653.6228156,263,1669803653,622528582,imu_link,-0.0003776256635319442,-0.01810790039598942,0.014736495912075043
1669803653.6280842,264,1669803653,627816426,imu_link,0.002622569212689996,-0.018812712281942368,0.0056907772086560735
1669803653.6339002,265,1669803653,633199168,imu_link,0.003048684448003769,-0.01550900284200907,0.023330105468630794
1669803653.6392615,266,1669803653,638589629,imu_link,0.0011437039356678724,-0.015462177805602552,0.01695827767252922
1669803653.6432557,267,1669803653,642845113,imu_link,9.309417509939522e-05,-0.016370415687561035,0.009515875019133093
1669803653.6484408,268,1669803653,648081484,imu_link,0.0010124641703441741,-0.016593143343925476,0.015318450517952444
1669803653.6537435,269,1669803653,653391044,imu_link,0.003679972607642412,-0.014999468810856344,0.013877461664378645
1669803653.6581323,270,1669803653,657679944,imu_link,0.003249229164794088,-0.01561492495238781,0.0006764332647435368
1669803653.663239,271,1669803653,662937429,imu_link,0.0027752711903303866,-0.012056573294103147,0.00887211412191391
1669803653.668662,272,1669803653,668148788,imu_link,0.002390191657468677,-0.010877123102545738,0.020285682752728466
1669803653.673669,273,1669803653,673378146,imu_link,0.0011780323693528774,-0.015681978315114975,0.0024490002542734146
1669803653.677864,274,1669803653,677613984,imu_link,0.003714780090376735,-0.012892516329884529,0.002881108550354839
1669803653.6838152,275,1669803653,683079804,imu_link,0.002036181511357427,-0.013809648342430593,0.010058300569653511
1669803653.689075,276,1669803653,688344553,imu_link,-0.0006593312136828899,-0.015164169482886793,0.0015020642895251513
1669803653.6930788,277,1669803653,692588372,imu_link,0.004902473185211421,-0.016821932047605515,-0.004733327776193619
1669803653.698368,278,1669803653,697886512,imu_link,0.0018119059968739748,-0.01368300896137953,0.01137031801044941
1669803653.7036915,279,1669803653,703244680,imu_link,0.004302031360566616,-0.022599101066589355,0.0018982660258188846
1669803653.7088373,280,1669803653,708454890,imu_link,0.008903387002646925,-0.019878920167684555,-0.0025168147403746848
1669803653.713045,281,1669803653,712705067,imu_link,0.0077216969802975655,-0.0272348877042532,0.008856480009853842
1669803653.71835,282,1669803653,717991899,imu_link,0.006620796862989665,-0.02900431677699089,0.0054180468432605275
1669803653.7234342,283,1669803653,723200091,imu_link,0.009457911364734175,-0.031750593334436424,-0.004634406417608261
1669803653.7287285,284,1669803653,728438935,imu_link,0.0020934499334543948,-0.03506243973970413,0.0032499840017408137
1669803653.733024,285,1669803653,732727166,imu_link,0.004453370813280345,-0.0321708619594574,0.009436085820198059
1669803653.7383559,286,1669803653,737995707,imu_link,0.007416381035000087,-0.0350460410118103,-0.003373502986505628
1669803653.743582,287,1669803653,743311780,imu_link,0.004941781517118216,-0.03304411098361016,0.004589463584125042
1669803653.7478538,288,1669803653,747577010,imu_link,0.003898323979228735,-0.03732514753937722,0.01872706040740013
1669803653.753145,289,1669803653,752881605,imu_link,0.0019573310855776076,-0.03267676383256912,0.004719089716672897
1669803653.7585049,290,1669803653,758182247,imu_link,0.004377881996333599,-0.032608229666948325,0.0026300419121980667
1669803653.7635815,291,1669803653,763330363,imu_link,0.005264465697109699,-0.03250539302825928,0.011665425263345243
1669803653.7684448,292,1669803653,767728481,imu_link,0.006771983578801155,-0.028676522895693782,0.00917460210621357
1669803653.7736135,293,1669803653,773088014,imu_link,0.00778574962168932,-0.028292866423726085,-0.001396291074343026
1669803653.7787924,294,1669803653,778358473,imu_link,0.003533777548000217,-0.024982530623674393,0.013465468771755697
1669803653.78299,295,1669803653,782590368,imu_link,0.008618903346359732,-0.027187889441847805,0.01151338592171669
1669803653.7883394,296,1669803653,787873513,imu_link,0.004436724353581668,-0.026216376572847366,0.001756882411427796
1669803653.7935503,297,1669803653,793166459,imu_link,0.00777155626565218,-0.01815854944288731,0.014320104382932188
1669803653.798781,298,1669803653,798452863,imu_link,0.006863586138933898,-0.020394422113895416,0.018411150202155117
1669803653.8029475,299,1669803653,802707428,imu_link,0.008625496178865433,-0.016515713185071945,0.004453993868082763
1669803653.808139,300,1669803653,807871481,imu_link,0.009961328469216825,-0.015999440103769302,0.008556240238249304
1669803653.8136015,301,1669803653,813108723,imu_link,0.003429482225328684,-0.016508257016539577,0.02244263701140881
1669803653.819216,302,1669803653,818482914,imu_link,0.006193746346980334,-0.01300419308245182,0.007713607978075744
1669803653.8232675,303,1669803653,822738837,imu_link,0.008011547848582268,-0.013510910794138908,0.01222790312021971
1669803653.8285544,304,1669803653,828136799,imu_link,0.007044462021440268,-0.011917192488908768,0.026083761826157573
1669803653.8337975,305,1669803653,833432094,imu_link,0.0069282883778214455,-0.008872124366462232,0.017639270052313808
1669803653.8378785,306,1669803653,837648070,imu_link,0.006155617535114288,-0.006955150980502368,0.013586137443780899
1669803653.8433034,307,1669803653,842854679,imu_link,0.007829780690371992,-0.002696370938792825,0.029982637614011765
1669803653.8484726,308,1669803653,848095846,imu_link,0.0027396010700613265,-0.001156307989731431,0.021864479407668117
1669803653.853564,309,1669803653,853244600,imu_link,0.0026657886337488894,-0.005692257545888424,0.013672560453414917
1669803653.8588958,310,1669803653,858510770,imu_link,0.0002055369695881382,-0.00045077374670654535,0.027422608807682994
1669803653.8629475,311,1669803653,862669341,imu_link,0.0012539827730506659,0.002928819041699171,0.02756491489708424
1669803653.868124,312,1669803653,867852957,imu_link,-0.002305971924215555,-0.0033967655617743735,0.011938048526644707
1669803653.8739269,313,1669803653,873263719,imu_link,-0.0011489383177831771,-0.0025756051763892174,0.02303198352456093
1669803653.87909,314,1669803653,878560313,imu_link,-0.0023416001349687576,-0.0029817323666065936,0.025723885744810104
1669803653.8833053,315,1669803653,882805427,imu_link,-0.0013068172847852113,-0.004060571547597648,0.007133185863494873
1669803653.8885112,316,1669803653,888041484,imu_link,-0.00036359939258545637,-0.0017725763609632852,0.015211841091513634
1669803653.8935535,317,1669803653,893270576,imu_link,-0.003991266712546349,-0.0036232823040336375,0.023581082001328472
1669803653.897717,318,1669803653,897454396,imu_link,-0.0011443892726674678,-0.0048928046599030495,0.010201334021985533
1669803653.9028788,319,1669803653,902675329,imu_link,-0.005228118039667606,-0.0012576018925756216,0.007344762329012156
1669803653.9081712,320,1669803653,907988434,imu_link,-0.0050745666958391675,-0.0032335780560970306,0.019156193360686306
1669803653.9137042,321,1669803653,913339111,imu_link,-0.0019870828837156296,-0.005354028660804034,0.013113749213516714
1669803653.9184523,322,1669803653,917718615,imu_link,-0.00862033572047949,-0.003287966363132,0.007949001155793669
1669803653.9237816,323,1669803653,923113750,imu_link,-0.003237980185076595,-0.0060499110259115705,0.016029171645641327
1669803653.9288068,324,1669803653,928418061,imu_link,-0.0041633592918515205,-0.0076301763765513906,0.009422732517123222
1669803653.9330835,325,1669803653,932743536,imu_link,-0.002717962255701423,-0.006523730233311653,0.001376874279230833
1669803653.938178,326,1669803653,937914922,imu_link,-0.0071428800001740456,-0.0030561650637537245,0.013963889330625534
1669803653.9433258,327,1669803653,943140142,imu_link,-0.0029131914488971233,-0.004372053779661655,0.013210606761276724
1669803653.9485986,328,1669803653,948343583,imu_link,-0.004741549491882324,-0.002372269751504064,-0.0015139493625611067
1669803653.9528964,329,1669803653,952674601,imu_link,-0.006906710099428893,-0.003528549801558256,0.0013046013191342354
1669803653.9581885,330,1669803653,957948317,imu_link,-0.0055566225200891495,-0.002805105643346906,0.012164579704403877
1669803653.964049,331,1669803653,963366963,imu_link,-0.006902208086103202,0.006403029430657626,-0.0019476143643260002
1669803653.9677925,332,1669803653,967511560,imu_link,-0.008397546596825125,0.0012882256414741278,0.0002764087112154812
1669803653.9731708,333,1669803653,972884061,imu_link,-0.0060096592642366895,0.003540503792464733,0.00963880866765976
1669803653.9783852,334,1669803653,978141581,imu_link,-0.005084277596324683,0.005301064811646938,-0.006119925063103438
1669803653.98372,335,1669803653,983412349,imu_link,-0.0013321599690243604,0.0066176443360745916,-0.010447179898619652
1669803653.9880426,336,1669803653,987864183,imu_link,-0.004179779440164566,0.00468789553269744,0.002876682672649622
1669803653.993447,337,1669803653,993159794,imu_link,-0.003592677880078554,0.006639929953962565,0.005383819807320834
1669803653.9988236,338,1669803653,998384713,imu_link,-0.0013433467829599979,0.011232493445277214,-0.010453167371451856
1669803654.003061,339,1669803654,2645861,imu_link,-0.005681022536009551,0.010727372951805593,-0.0007636670488864183
1669803654.008233,340,1669803654,7951472,imu_link,-0.0024565041530877356,0.008078645914793015,0.0025749302003532652
1669803654.0135033,341,1669803654,13195307,imu_link,-0.0012264165561646223,0.014786417596042158,-0.010235606692731382
1669803654.0187213,342,1669803654,18456142,imu_link,-0.0008113168878480792,0.007160011213272811,-0.0017479178495705128
1669803654.0229988,343,1669803654,22839944,imu_link,-0.0011332290014252069,0.011616948060691358,0.0012867068871855736
1669803654.0286493,344,1669803654,28358788,imu_link,0.0030651381239295006,0.008179266937077047,-0.011273467913269997
1669803654.0328097,345,1669803654,32565258,imu_link,-0.00408660201355815,0.008095838129520416,-0.008174017071723938
1669803654.0380828,346,1669803654,37744036,imu_link,0.000736085930839181,0.013696412555873396,0.0061943987384438515
1669803654.0437768,347,1669803654,43135418,imu_link,8.63878885866143e-05,0.006653382908552886,-0.006366507150232792
1669803654.0489924,348,1669803654,48492441,imu_link,-0.005637096706777812,0.008548816666007042,-0.009062130935490133
1669803654.0531642,349,1669803654,52751585,imu_link,-0.0031962918583303694,0.001996761653572321,0.0026583722792565823
1669803654.0583332,350,1669803654,58035200,imu_link,-0.0019014142453670502,0.005043277982622386,-0.003772243857383728
1669803654.0635376,351,1669803654,63209239,imu_link,-0.0009976285509765148,0.003040582872927189,-0.011059642769396307
1669803654.068719,352,1669803654,68435058,imu_link,-0.0028684719000011687,0.00048802507808431983,0.0023931267205625777
1669803654.0731392,353,1669803654,72676257,imu_link,-0.0025160647928714752,0.001092235906980932,-0.002574925078079105
1669803654.0787835,354,1669803654,78119710,imu_link,-0.001981817884370685,0.0014349543489515781,-0.01548604015260935
1669803654.0841436,355,1669803654,83572357,imu_link,-0.006917114369571209,0.0013299495913088322,-0.008364769630134107
1669803654.088425,356,1669803654,87859523,imu_link,-0.002200903138145805,-0.0023134066723287106,0.0026561298873275523
1669803654.0938127,357,1669803654,93224606,imu_link,-0.0042274706065654755,-0.0022501030471175913,-0.012052052654325964
1669803654.0988593,358,1669803654,98468982,imu_link,-0.004905469249933959,-0.0015064622275531292,-0.007013237569481135
1669803654.1030228,359,1669803654,102719573,imu_link,-0.002404310740530491,0.0001385818177368492,0.003465259680524469
1669803654.1083755,360,1669803654,108004650,imu_link,-0.00536812748759985,-0.0009715696214698256,-0.006891051307320595
1669803654.113447,361,1669803654,113123573,imu_link,-0.005087229423224926,0.005757091101258994,-0.004512066487222911
1669803654.118651,362,1669803654,118386805,imu_link,-0.002200932241976261,0.005246715154498816,0.006562447175383568
1669803654.1229086,363,1669803654,122628543,imu_link,-0.0034183417446911335,0.0013291595969349146,-0.0033266788814216857
1669803654.1282077,364,1669803654,127932652,imu_link,-0.00847353506833315,0.004941234365105629,-0.010533635504543783
1669803654.1334152,365,1669803654,133180107,imu_link,-0.009963612072169782,0.008949685841798782,0.0038795326836407185
1669803654.1386766,366,1669803654,138481457,imu_link,-0.0061579616740345955,0.008226138539612295,-0.002189742401242256
1669803654.1436927,367,1669803654,142958865,imu_link,-0.005709358025342227,0.009737937711179258,-0.010250495746731758
1669803654.1490235,368,1669803654,148405772,imu_link,-0.008858704008162023,0.010289281606674194,0.001490879454649985
1669803654.1529458,369,1669803654,152655500,imu_link,-0.011467247270047666,0.010752620175480843,-0.0007420631591230631
1669803654.1582582,370,1669803654,157972043,imu_link,-0.006362835410982371,0.007782142609357834,-0.014161295257508756
1669803654.164066,371,1669803654,163416914,imu_link,-0.006658506114035846,0.010060555301606657,-0.003731291741132736
1669803654.1684787,372,1669803654,167887085,imu_link,-0.009468949399888517,0.008374437689781189,0.0033818411175161604
1669803654.1734993,373,1669803654,173158613,imu_link,-0.008354377001523972,0.004971747752279044,-0.013750779442489149
1669803654.178643,374,1669803654,178383505,imu_link,-0.00947865564376116,0.0019863625057041645,-0.01228300202637911
1669803654.1828423,375,1669803654,182624440,imu_link,-0.0060126204043626785,-0.00044850673293694854,-0.0005498520913533867
1669803654.1883829,376,1669803654,187980776,imu_link,-0.00805554259568453,-0.003733490128070116,-0.012322532944381239
1669803654.1936135,377,1669803654,193302385,imu_link,-0.009863910265266897,-0.006218192167580128,-0.011243633925914764
1669803654.1978395,378,1669803654,197602819,imu_link,-0.009755036793649198,-0.006838899105787277,-0.0003889650397468359
1669803654.203196,379,1669803654,202907002,imu_link,-0.006253991276025772,-0.00802355632185936,-0.008706745691597463
1669803654.2089114,380,1669803654,208309047,imu_link,-0.004868213087320328,-0.009948073886334898,-0.015094837173819542
1669803654.2133434,381,1669803654,212681994,imu_link,-0.007823141291737556,-0.00816133711487055,0.0005565615720115603
1669803654.218565,382,1669803654,218056983,imu_link,-0.00661161681637168,-0.007472241297364235,-0.00467072380706668
1669803654.2236907,383,1669803654,223338308,imu_link,-0.0004202075069770217,-0.006768166087567806,-0.014071884565055372
1669803654.2279174,384,1669803654,227550936,imu_link,-0.005181170534342528,-0.008086835965514183,-0.002820051042363048
1669803654.2331326,385,1669803654,232679167,imu_link,-0.002694864990189672,-0.006563963368535042,-0.0010609824676066637
1669803654.2387972,386,1669803654,238055768,imu_link,-0.0038452004082500935,-0.0042416038922965535,-0.010883083567023277
1669803654.243843,387,1669803654,243345438,imu_link,-0.001303154043853283,-0.0046096742153167725,-0.007978075183928015
1669803654.2481277,388,1669803654,247616352,imu_link,-0.002674756338819862,0.00039264524821192026,0.0032030071597546343
1669803654.253117,389,1669803654,252828767,imu_link,-0.0024228873662650585,-0.002311948454007507,-0.007676337379962207
1669803654.2584183,390,1669803654,258056925,imu_link,-0.001621250994503498,0.002579402877017856,-0.008517500013113022
1669803654.2635465,391,1669803654,263324649,imu_link,-0.000979735632427037,0.0017158667324110868,0.00628233328461647
1669803654.2677124,392,1669803654,267500550,imu_link,-0.0025056633166968822,0.005193039309233428,0.0006370319752022624
1669803654.2729557,393,1669803654,272679319,imu_link,-0.0026255622506141663,0.006870185490697623,-0.002811114070937038
1669803654.278155,394,1669803654,277825127,imu_link,-0.0025182643439620738,0.0060498714447021484,0.005739196669310332
1669803654.2833683,395,1669803654,283112388,imu_link,-0.001907347235828638,0.004929308779537678,0.0053763347677886495
1669803654.2887108,396,1669803654,288357410,imu_link,-0.0006101988838054241,0.0035442356020212173,-0.0022918095346540217
1669803654.2935257,397,1669803654,292784459,imu_link,-0.003305019810795784,0.005013536196202041,0.010639428161084654
1669803654.2988696,398,1669803654,298205033,imu_link,0.0007554884068667889,0.003953285049647094,0.009884681552648544
1669803654.3037903,399,1669803654,303403677,imu_link,-0.0005617705755867065,0.0008657560101710261,-0.004033745266497135
1669803654.3079717,400,1669803654,307715745,imu_link,6.111626134952532e-05,0.0032917121425271034,0.0067829866893589505
1669803654.3131669,401,1669803654,312896068,imu_link,-0.0026747107040137057,0.002415467519313097,0.013100368902087212
1669803654.3185441,402,1669803654,318150924,imu_link,0.00604168837890029,-0.001625692704692483,-0.0033512616064399485
1669803654.3236067,403,1669803654,323377071,imu_link,-0.00020266296633053574,-0.003608314553275705,-0.002449008170515299
1669803654.3280468,404,1669803654,327630028,imu_link,0.0013202510308474302,-0.0013358645373955371,0.006182494573295116
1669803654.3338706,405,1669803654,332979702,imu_link,0.0037528746761381626,-0.0016569894505664708,0.00232904008589685
1669803654.3389869,406,1669803654,338294831,imu_link,0.006476765498518944,-0.004458461422473193,-0.0022426280193030834
1669803654.3432496,407,1669803654,342599443,imu_link,0.0028527982067316775,-0.0018514717230573299,0.009670117869973183
1669803654.3482487,408,1669803654,347846353,imu_link,0.001602650387212634,-0.006737552117556334,-0.0004463152145035565
1669803654.3533723,409,1669803654,353094240,imu_link,0.004821269307285548,-0.008717924356460571,-0.002706794533878565
1669803654.3587637,410,1669803654,358427645,imu_link,0.004963550250977279,-0.007471446879208088,0.005310046952217818
1669803654.3629913,411,1669803654,362721277,imu_link,0.006983433850109577,-0.011398639529943466,0.01018196251243353
1669803654.36823,412,1669803654,367977673,imu_link,0.0064149615354836,-0.008063774555921555,0.0036604295019060378
1669803654.3734086,413,1669803654,373205847,imu_link,0.005707111209630966,-0.013747830875217916,0.009237970225512983
1669803654.378788,414,1669803654,378440226,imu_link,0.0068568214774131775,-0.009269955568015577,0.011818870902061462
1669803654.3828292,415,1669803654,382624866,imu_link,0.004433872178196907,-0.010331710800528526,0.0022306877654045825
1669803654.3885746,416,1669803654,387978022,imu_link,0.006989320274442435,-0.009793097153306007,0.007709857542067767
1669803654.394074,417,1669803654,393378724,imu_link,0.010103774257004263,-0.008028741925954819,0.019647907465696335
1669803654.3984337,418,1669803654,397712029,imu_link,0.007227050606161357,-0.004774312488734722,0.00938104745000601
1669803654.4033325,419,1669803654,402920153,imu_link,0.005290635861456394,-0.006521517410874367,0.0066235591657459745
1669803654.4084795,420,1669803654,408152551,imu_link,0.004900237545371056,0.0034436315763741736,0.022053726017475128
1669803654.4136584,421,1669803654,413390604,imu_link,0.006606363225728274,0.0035234279930591583,0.015765447169542313
1669803654.4179366,422,1669803654,417659878,imu_link,0.004950172267854214,0.005873292218893767,0.009667126461863518
1669803654.4232042,423,1669803654,422932643,imu_link,0.009088217280805113,0.009748264215886595,0.02207685261964798
1669803654.4284353,424,1669803654,428139110,imu_link,0.00906211603432894,0.0077605461701750755,0.013896086253225805
1669803654.4341753,425,1669803654,433445559,imu_link,0.0029437728226184845,0.012741220183670523,0.006926073227077723
1669803654.4384754,426,1669803654,437718083,imu_link,0.00463504996150732,0.016221998259425167,0.021364644169807434
1669803654.4436176,427,1669803654,442991655,imu_link,0.005973067134618759,0.016471073031425476,0.020978556945919994
1669803654.448843,428,1669803654,448289966,imu_link,-0.0016548015410080554,0.013723986223340034,0.007083975244313479
1669803654.452966,429,1669803654,452588202,imu_link,0.006223562639206649,0.015111902728676796,0.015311015769839287
1669803654.4582825,430,1669803654,457887089,imu_link,-0.0007926733815111221,0.019193388521671295,0.02163132466375828
1669803654.4633956,431,1669803654,463097431,imu_link,0.004061980638653041,0.01758571527898312,0.012669593095779419
1669803654.4686444,432,1669803654,468362954,imu_link,-0.001279972493648529,0.013225491158664228,0.010489724576473236
1669803654.472949,433,1669803654,472592413,imu_link,-0.0033579817973077297,0.011917910538613798,0.019173348322510723
1669803654.4780052,434,1669803654,477796089,imu_link,0.0010683737928047778,0.009686490520834923,0.010497136972844602
1669803654.483168,435,1669803654,482962574,imu_link,0.002235185587778688,0.007563839200884105,0.004524716176092625
1669803654.4890943,436,1669803654,488329437,imu_link,-0.0012412481009960175,0.0023051949683576827,0.019596517086029053
1669803654.4934292,437,1669803654,492719589,imu_link,-0.0031337013933807616,-0.0004976913332939148,0.008469080552458763
1669803654.4985092,438,1669803654,498140106,imu_link,-0.0016056050080806017,-0.0023297893349081282,-0.0018954321276396513
1669803654.5036333,439,1669803654,503370436,imu_link,-0.0010594944469630718,-0.004725881852209568,0.007476667407900096
1669803654.507845,440,1669803654,507608539,imu_link,-0.0016711296048015356,-0.0045075961388647565,0.007795553654432297
1669803654.5130663,441,1669803654,512822876,imu_link,-0.003316235728561878,-0.007405129726976157,-0.0061243907548487195
1669803654.5189254,442,1669803654,518196745,imu_link,-0.004243857227265835,-0.009629857726395132,0.003990571014583111
1669803654.5245898,443,1669803654,523699902,imu_link,-0.0003270477754995227,-0.008516686037182808,0.009815459139645101
1669803654.528619,444,1669803654,527954212,imu_link,-0.0006086565554141998,-0.0078104506246745595,-0.004696100950241089
1669803654.5335302,445,1669803654,533199870,imu_link,-0.002960129640996456,-0.005938104819506408,-0.0004180011164862663
1669803654.5388038,446,1669803654,538496022,imu_link,-0.0033780839294195175,-0.0015258745988830926,0.01398995891213417
1669803654.542987,447,1669803654,542697480,imu_link,5.812375820823946e-05,-0.003911547828465701,0.002044453751295805
1669803654.5482247,448,1669803654,547943149,imu_link,-0.0017859170911833646,-0.002398332580924034,-0.0002130877255694941
1669803654.554001,449,1669803654,553282249,imu_link,0.0011928104795515537,0.000286836555460468,0.00972599256783724
1669803654.5594132,450,1669803654,558664696,imu_link,0.001255447161383927,-0.0033132717944681644,0.002043681917712093
1669803654.5633986,451,1669803654,562893800,imu_link,-0.0008948059985414147,0.002714245580136776,-0.0023655637633055453
1669803654.5685344,452,1669803654,568112105,imu_link,0.002209870610386133,0.0019326425390318038,0.01508370041847229
1669803654.5737035,453,1669803654,573318013,imu_link,0.0012755182106047869,0.0008091501076705755,0.012479723431169988
1669803654.5779018,454,1669803654,577592456,imu_link,0.0006891720113344492,0.0028014234267175198,-0.00544413784518838
1669803654.5830412,455,1669803654,582851153,imu_link,-0.0014648244250565767,-0.002019852865487337,0.00814869347959757
1669803654.588718,456,1669803654,588072978,imu_link,0.004979969002306461,-0.0013209615135565402,0.010191652923822403
1669803654.594141,457,1669803654,593497136,imu_link,0.0006899217260070146,-0.000160923576913774,-0.001683833310380578
1669803654.5984278,458,1669803654,597791538,imu_link,-0.0003069585363846273,-0.0006526667857542634,0.002617391059175134
1669803654.6034677,459,1669803654,603024053,imu_link,-0.0018350725295022132,-0.0013791132951155307,0.007902083918452263
1669803654.6087186,460,1669803654,608318500,imu_link,0.0011801916407421233,-9.704743206384592e-06,-0.010008362121880056
1669803654.6138341,461,1669803654,613571860,imu_link,0.0007234463118948043,0.001381352311000228,-0.00720694474875927
1669803654.6181254,462,1669803654,617810365,imu_link,0.0024214419536292553,0.004202128853648902,0.0009432281367480755
1669803654.6233351,463,1669803654,622999077,imu_link,0.004139585420489311,-0.001437926897779107,-0.008387849666178228
1669803654.629276,464,1669803654,628424662,imu_link,0.0004127349820919335,0.0006542025948874653,-0.013390928506851196
1669803654.6333077,465,1669803654,632737617,imu_link,4.5441363909048966e-05,-0.0016547746490687132,-0.0006794919027015567
1669803654.6384957,466,1669803654,638002274,imu_link,0.00020339738694019616,-0.002017607213929296,-0.004944209009408951
1669803654.643627,467,1669803654,643223114,imu_link,-0.0008642592001706362,-0.005573096685111523,-0.015246844850480558
1669803654.6488173,468,1669803654,648515403,imu_link,-0.0025436454452574253,-0.003127726493403316,-0.006381428800523281
1669803654.6530478,469,1669803654,652758832,imu_link,-0.002570441458374262,-0.006423173006623984,-0.006145958323031665
1669803654.6586785,470,1669803654,658068043,imu_link,-0.002215835265815258,-0.0074728778563439855,-0.016181934624910355
1669803654.6641057,471,1669803654,663427060,imu_link,-0.003381145652383566,-0.00657885055989027,-0.011301771737635137
1669803654.66829,472,1669803654,667699472,imu_link,-0.004129090346395969,-0.011511153541505338,-0.0003084727795794606
1669803654.67328,473,1669803654,672922613,imu_link,-0.010453128255903723,-0.011272778734564781,-0.01961662247776985
1669803654.6785202,474,1669803654,678125077,imu_link,-0.007963244803249838,-0.008598677814006805,-0.012943134643137457
1669803654.6839616,475,1669803654,683398107,imu_link,-0.007019896525889636,-0.01270104479044676,-0.005729464814066887
1669803654.687884,476,1669803654,687579924,imu_link,-0.006883530877530575,-0.008489930070936682,-0.014711949974298477
1669803654.6937869,477,1669803654,692870936,imu_link,-0.011734742671251297,-0.006831397768110038,-0.014819162897765638
1669803654.6989536,478,1669803654,698222562,imu_link,-0.012489428743720055,-0.0054061426781117925,-0.005805454216897488
1669803654.704261,479,1669803654,703509029,imu_link,-0.010585759766399862,-0.006481306161731482,-0.011327115818858147
1669803654.7084801,480,1669803654,707767641,imu_link,-0.009053925052285194,-0.008850571699440481,-0.01528710313141346
1669803654.7136836,481,1669803654,713011120,imu_link,-0.010538836009800436,-0.0032700481824576855,-0.0046782540157437325
1669803654.7185097,482,1669803654,718252494,imu_link,-0.01169440243393183,-0.008292542770504951,-0.003486864967271686
1669803654.723213,483,1669803654,722567793,imu_link,-0.009699166752398016,-0.003702244954183698,-0.017755471169948578
1669803654.7287688,484,1669803654,727925768,imu_link,-0.012330722063779831,-0.005365849938243628,-0.0042327214032411575
1669803654.7340667,485,1669803654,733270137,imu_link,-0.010180431418120863,-0.005359994247555733,-0.002669604029506445
1669803654.7391322,486,1669803654,738597570,imu_link,-0.007761985994875431,-0.00704750930890441,-0.013193503022193909
1669803654.743979,487,1669803654,742891772,imu_link,-0.00867177825421095,-0.007046719547361136,-0.007067603059113026
1669803654.7491062,488,1669803654,748347287,imu_link,-0.005607304163277149,-0.0029072265606373553,0.0033877738751471043
1669803654.7538733,489,1669803654,753475677,imu_link,-0.00879761204123497,-0.006811384577304126,-0.015561274252831938
1669803654.7579768,490,1669803654,757676599,imu_link,-0.0041433777660131454,-0.010437496937811376,-0.013954920694231987
1669803654.7630727,491,1669803654,762892911,imu_link,-0.007329888641834259,-0.011560320854187012,0.002096571726724506
1669803654.7683794,492,1669803654,768075672,imu_link,-0.001127246767282486,-0.009781875647604467,-0.0031992667354643345
1669803654.7741818,493,1669803654,773437268,imu_link,-0.004231920000165702,-0.007269537076354027,-0.010642411187291145
1669803654.7785676,494,1669803654,777877353,imu_link,-0.004182785749435425,-0.01354812551289797,-0.004716228693723679
1669803654.7835808,495,1669803654,783155245,imu_link,0.0012003392912447453,-0.009383998811244965,-0.0005759512423537673
1669803654.7888381,496,1669803654,788421133,imu_link,0.0004544844559859485,-0.012193627655506134,-0.012416387908160688
1669803654.793354,497,1669803654,792815474,imu_link,0.0039115045219659805,-0.007943834178149702,0.0010892724385485055
1669803654.7982657,498,1669803654,797942373,imu_link,0.005472486838698387,-0.008425115607678892,0.004350349307060242
1669803654.803771,499,1669803654,803233903,imu_link,-0.0005214819684624672,-0.010238593444228172,-0.009614977054297926
1669803654.8093657,500,1669803654,808652870,imu_link,0.005087912082672119,-0.011289167217910291,-0.003547202330082655
1669803654.8137162,501,1669803654,812976001,imu_link,0.0025622351095080376,-0.0070169451646506795,0.009265559725463392
1669803654.8186705,502,1669803654,818247765,imu_link,0.00501649221405387,-0.004805588163435459,-0.004573934245854617
1669803654.8239236,503,1669803654,823612849,imu_link,0.0018596340669319036,-0.005655748303979636,0.0008828869322314858
1669803654.8282049,504,1669803654,827825856,imu_link,0.003517454955726862,-0.004672280978411437,0.010655798017978668
1669803654.8333683,505,1669803654,833064325,imu_link,0.0015341269318014383,-0.006507326383143664,0.0003948742814827711
1669803654.8386817,506,1669803654,838362110,imu_link,0.002085392829030752,-0.0037804350722581152,0.000920905964449048
1669803654.844036,507,1669803654,843687652,imu_link,0.005070097744464874,-0.0011399933136999607,0.020376602187752727
1669803654.8482568,508,1669803654,847945214,imu_link,0.0018134803976863623,-0.0032506992574781184,0.010794397443532944
1669803654.8536193,509,1669803654,853276274,imu_link,2.8300590201979503e-05,-0.0062026078812778005,0.0022664710413664584
1669803654.8589237,510,1669803654,858616401,imu_link,0.001183120650239289,-0.006318841129541397,0.015138094313442709
1669803654.8631136,511,1669803654,862829364,imu_link,-0.003223021281883121,-0.007459556218236686,0.016327951103448868
1669803654.8686607,512,1669803654,868152191,imu_link,-0.0026412196457386017,-0.0058963955380022534,0.0007949691498652101
1669803654.8736942,513,1669803654,873381455,imu_link,-0.004266188479959965,-0.003897381247952581,0.014014550484716894
1669803654.877981,514,1669803654,877690729,imu_link,-0.0037595427129417662,-0.002335045952349901,0.016681851819157604
1669803654.8831367,515,1669803654,882894363,imu_link,-0.00420658104121685,-0.0053994422778487206,0.0058017740957438954
1669803654.8890083,516,1669803654,888276724,imu_link,-0.004796668887138367,-0.0012598758330568673,0.013738878071308136
1669803654.8942523,517,1669803654,893690299,imu_link,-0.004319089464843273,-0.0012666078982874753,0.02233088575303555
1669803654.898484,518,1669803654,898006760,imu_link,-0.0025756703689694405,-0.0032693541143089537,0.007252376526594162
1669803654.9037638,519,1669803654,903322999,imu_link,-0.003551709931343794,-0.004801150411367416,0.007698679808527232
1669803654.9079561,520,1669803654,907604608,imu_link,-0.004029295407235622,-0.0004887155373580755,0.02072974666953087
1669803654.913126,521,1669803654,912893846,imu_link,-0.004994831047952175,-0.006704076658934356,0.007973601110279562
1669803654.9186218,522,1669803654,918273603,imu_link,-0.005038812290877105,-0.006671249866485596,0.005858405027538539
1669803654.9243815,523,1669803654,923631252,imu_link,-0.004727411083877087,-0.0066168783232569695,0.013869986869394781
1669803654.9285998,524,1669803654,927950998,imu_link,-0.004592535551637412,-0.008039193227887154,0.012511004693806173
1669803654.933717,525,1669803654,933315078,imu_link,-0.0025019492022693157,-0.00834090728312731,0.0025414109695702796
1669803654.938991,526,1669803654,938632840,imu_link,-0.005354762077331543,-0.005278747063130141,0.010896455496549606
1669803654.9431164,527,1669803654,942846761,imu_link,-0.00297574233263731,-0.006853779777884483,0.009886934421956541
1669803654.948446,528,1669803654,948157195,imu_link,-0.00119503284804523,-0.007959472946822645,-0.006817271001636982
1669803654.9538114,529,1669803654,953377031,imu_link,0.0012218451593071222,-0.009355696849524977,-0.0036910281050950293
1669803654.957949,530,1669803654,957660826,imu_link,-0.0021114742849022154,-0.007268020883202553,0.003986109513789416
1669803654.9631515,531,1669803654,962890307,imu_link,-0.0002279750042362139,-0.002229904988780618,-0.009678317233920097
1669803654.968315,532,1669803654,968060606,imu_link,-0.0035770491231232886,-0.0064790211617946625,-0.007893883623182775
1669803654.9737027,533,1669803654,973370751,imu_link,-0.004295254591852427,-0.006189202889800072,0.0011123663280159235
1669803654.9779053,534,1669803654,977607513,imu_link,-0.005666907411068679,-0.0053979335352778435,-0.012557965703308584
1669803654.9831448,535,1669803654,982838501,imu_link,-0.0033825505524873734,-0.0029727532528340816,-0.016009075567126278
1669803654.9886816,536,1669803654,988179011,imu_link,-0.002508624456822872,-0.006090099457651378,0.00015793819329701364
1669803654.9941497,537,1669803654,993538311,imu_link,-0.003926410339772701,-0.007552667986601592,-0.00798777583986521
1669803654.9984999,538,1669803654,997800801,imu_link,-0.002327578375115991,-0.009314760565757751,-0.016779428347945217
1669803655.0039153,539,1669803655,3215629,imu_link,-0.005236342083662749,-0.008569602854549887,-0.006671265698969364
1669803655.0092192,540,1669803655,8593920,imu_link,-0.002177744172513485,-0.009198491461575033,-0.007516160607337952
1669803655.0136526,541,1669803655,12885218,imu_link,-0.004944208078086376,-0.013454954139888288,-0.014167326502501966
1669803655.0184495,542,1669803655,18094003,imu_link,-0.009378217160701752,-0.013261185027658941,-0.008060017600655556
1669803655.024007,543,1669803655,23430197,imu_link,-0.008251494728028776,-0.011947763152420523,-0.0038616489619016647
1669803655.0279217,544,1669803655,27673089,imu_link,-0.008612866513431074,-0.010454680770635605,-0.013978020288050176
1669803655.0332618,545,1669803655,32950341,imu_link,-0.005539601668715477,-0.016525408253073696,-0.009819784201681616
1669803655.0390687,546,1669803655,38346463,imu_link,-0.008976446464657784,-0.019277641549706463,0.00026376964524388313
1669803655.043393,547,1669803655,42660666,imu_link,-0.007304465863853694,-0.015033829025924208,-0.006549045443534851
1669803655.0483274,548,1669803655,47864321,imu_link,-0.0071921111084520825,-0.014546485617756844,-0.006608652416616679
1669803655.0535388,549,1669803655,53175809,imu_link,-0.003910787403583527,-0.014604634605348112,0.0008136059041135014
1669803655.058727,550,1669803655,58453129,imu_link,-0.00620402628555894,-0.015104595571756363,-0.0024564296472817664
1669803655.0630326,551,1669803655,62697582,imu_link,-0.00845494493842125,-0.01381932757794857,-0.00311579997651279
1669803655.0685081,552,1669803655,67929195,imu_link,-0.006277183536440135,-0.016048505902290344,0.008466872386634352
1669803655.0734987,553,1669803655,73164487,imu_link,-0.0028311552014201884,-0.012435795739293098,0.010076889768242836
1669803655.0789316,554,1669803655,78567039,imu_link,-0.0039093545638024816,-0.011637050658464432,0.000304736226098612
1669803655.0831385,555,1669803655,82810241,imu_link,0.00040376131073571747,-0.010469560511410238,0.012256205081939697
1669803655.0884018,556,1669803655,88113998,imu_link,-0.002495943568646908,-0.01025128271430731,0.01825539767742157
1669803655.0937247,557,1669803655,93412826,imu_link,-0.002755183028057218,-0.009389970451593399,0.002110045403242111
1669803655.0980437,558,1669803655,97760139,imu_link,0.00038521338137798017,-0.0055313147604465485,0.014588980935513975
1669803655.1034434,559,1669803655,103033778,imu_link,-0.0018440696876496077,-0.0034325262531638145,0.018543740734457973
1669803655.1085813,560,1669803655,108310073,imu_link,-0.00031288451282307506,-0.008263464085757734,0.009094160050153732
1669803655.1133206,561,1669803655,112809877,imu_link,-0.0026263524778187275,0.000414249865571037,0.008607649244368078
1669803655.118853,562,1669803655,118030197,imu_link,-0.003779658349230886,-0.002287459559738636,0.024708354845643047
1669803655.1250935,563,1669803655,123422722,imu_link,-0.004830170422792435,-0.0012316370848566294,0.013922165147960188
1669803655.1285467,564,1669803655,127832830,imu_link,-0.003306567901745439,-0.002475824672728777,0.007922948338091375
1669803655.1338422,565,1669803655,133207604,imu_link,-0.002254608785733581,-0.005071527324616909,0.024088483303785324
1669803655.1392853,566,1669803655,138598646,imu_link,0.001674098428338766,0.0022247710730880503,0.0219687819480896
1669803655.1436348,567,1669803655,142949061,imu_link,7.89549740147777e-05,-0.0006302716792561115,0.013142826035618782
1669803655.1486497,568,1669803655,148199576,imu_link,-0.0013940787175670268,-0.002633776981383562,0.02519115246832371
1669803655.1539454,569,1669803655,153545466,imu_link,0.0024841418489813805,-0.005117019172757865,0.02327784709632397
1669803655.1581287,570,1669803655,157832111,imu_link,-0.003510726150125265,-0.002535489154979587,0.012663738802075386
1669803655.1639295,571,1669803655,163150708,imu_link,-0.0032820163760334258,0.00029955597710795706,0.023288272321224213
1669803655.1690817,572,1669803655,168467488,imu_link,-0.002047465415671468,-0.0018298511859029531,0.028944013640284542
1669803655.1732717,573,1669803655,172751457,imu_link,-0.0035040611401200294,-0.0005945406737737359,0.014436981640756132
1669803655.1784108,574,1669803655,178034098,imu_link,-0.006578137632459403,0.003074822947382927,0.018310548737645153
1669803655.1836455,575,1669803655,183364007,imu_link,-0.008707447908818724,0.0036038004327565436,0.027711711823940277
1669803655.1889057,576,1669803655,188614064,imu_link,-0.007674161344766617,0.003339297836646438,0.016970913857221603
1669803655.193127,577,1669803655,192807618,imu_link,-0.006528927478939296,0.002093636430799961,0.012091554701328278
1669803655.1983619,578,1669803655,198070521,imu_link,-0.010953822173178198,0.0007219947874546051,0.027731822803616527
1669803655.2037601,579,1669803655,203355934,imu_link,-0.009158255532383919,0.00338997645303607,0.02261549793183804
1669803655.2080104,580,1669803655,207768115,imu_link,-0.005539508070796729,0.0015042887534946203,0.016254188492894176
1669803655.2132423,581,1669803655,212959882,imu_link,-0.007875240407884123,0.0010952227748930454,0.024586182087659836
1669803655.218606,582,1669803655,218260263,imu_link,-0.009351243264973165,0.0003255459596402943,0.0254169087857008
1669803655.2237082,583,1669803655,223505278,imu_link,-0.010834570974111557,-0.0005029300227761269,0.010713254101574423
1669803655.2280614,584,1669803655,227825642,imu_link,-0.013760467059910299,-0.0004723409074358642,0.018922997638583187
1669803655.2340245,585,1669803655,233238818,imu_link,-0.01255943812429905,-0.0008680926985107363,0.02138018794357777
1669803655.239276,586,1669803655,238534690,imu_link,-0.011372554115951063,0.0021338514052331448,0.00969918165355921
1669803655.2434564,587,1669803655,242787548,imu_link,-0.009068132378160955,8.203606557799505e-05,0.01294834166765213
1669803655.2487075,588,1669803655,248106117,imu_link,-0.012546016834676267,0.005009776912629604,0.021639475598931316
1669803655.2539825,589,1669803655,253427319,imu_link,-0.01022970024496317,0.004210250452160835,0.005639302544295788
1669803655.2582977,590,1669803655,257730929,imu_link,-0.006488695740699768,0.0029213887173682456,0.004819046705961227
1669803655.264685,591,1669803655,263116611,imu_link,-0.005967161618173122,0.0015929925721138716,0.015354153700172903
1669803655.2689416,592,1669803655,268440969,imu_link,-0.009304309263825417,0.002327497815713287,0.009495014324784279
1669803655.2730925,593,1669803655,272679185,imu_link,-0.004199132788926364,0.0033110622316598892,0.00436454638838768
1669803655.278466,594,1669803655,278046114,imu_link,-0.006157867144793273,0.0055910199880599976,0.015023329295217993
1669803655.28379,595,1669803655,283342962,imu_link,-0.008864683099091055,0.006055099423974753,0.012468554079532623
1669803655.2888436,596,1669803655,288600655,imu_link,-0.00603347783908248,0.004336986690759659,0.0005006652208976449
1669803655.2937536,597,1669803655,292888035,imu_link,-0.001974345650523901,0.006630977150052787,0.012711468152701856
1669803655.2989497,598,1669803655,298357628,imu_link,-0.006600521039217711,0.006255501881241798,0.011692914180457594
1669803655.303258,599,1669803655,302735938,imu_link,-0.004187245853245258,0.005561842583119869,-0.00247732293792069
1669803655.308323,600,1669803655,307952318,imu_link,-0.0023200749419629574,0.006100569386035205,0.006942432373762131
1669803655.3134623,601,1669803655,313130566,imu_link,-0.005432242061942817,0.006157898344099522,0.016403943300247192
1669803655.3186798,602,1669803655,318390788,imu_link,-0.0024482661392539744,0.0015683413948863745,0.0033013510983437304
1669803655.3232558,603,1669803655,322649461,imu_link,-0.0036395778879523277,0.006134822033345699,0.0049345274455845365
1669803655.3280666,604,1669803655,327833245,imu_link,-0.005381540395319462,0.00448004947975278,0.015406310558319092
1669803655.3334816,605,1669803655,333023884,imu_link,-0.001373885781504214,0.004238634370267391,0.004213303327560425
1669803655.338417,606,1669803655,338231903,imu_link,-0.004333982244133949,0.00570195121690631,0.0021807709708809853
1669803655.3437545,607,1669803655,343540684,imu_link,-0.00204147887416184,0.0030897588003426795,0.017379965633153915
1669803655.3480642,608,1669803655,347838367,imu_link,-0.0017620651051402092,0.0029184215236455206,0.010716907680034637
1669803655.3533196,609,1669803655,353059704,imu_link,0.0008024334092624487,0.0016525357495993376,0.00025704840663820505
1669803655.358719,610,1669803655,358376267,imu_link,-0.003418350359424949,0.002031044103205204,0.016355508938431743
1669803655.363862,611,1669803655,363591975,imu_link,-0.0015720680821686983,-0.0016428446397185326,0.018285965546965603
1669803655.3681793,612,1669803655,367837608,imu_link,-0.005345050245523453,-0.0026375090237706904,0.008036939427256584
1669803655.3733203,613,1669803655,373031805,imu_link,-0.0008814157336018981,-0.003638154361397028,0.015584370121359825
1669803655.3793068,614,1669803655,378397093,imu_link,0.0012822576100006702,-0.004785486496984959,0.022329395636916164
1669803655.3834417,615,1669803655,382680598,imu_link,0.002737356349825859,-0.009694701060652733,0.008136766962707044
1669803655.388794,616,1669803655,388091369,imu_link,-0.002841718262061477,-0.008481739088892937,0.01607312820851803
1669803655.3940196,617,1669803655,393443144,imu_link,0.0005924242432229222,-0.008925748988986015,0.028055917471647263
1669803655.3984756,618,1669803655,397785005,imu_link,0.0026419849600642924,-0.012944595888257027,0.01886638812720776
1669803655.403545,619,1669803655,403070064,imu_link,0.0013366485945880413,-0.013393187895417213,0.017007419839501384
1669803655.4088707,620,1669803655,408401021,imu_link,0.0039018138777464633,-0.014547940343618393,0.029682414606213573
1669803655.4129975,621,1669803655,412650854,imu_link,0.0014327411772683265,-0.01559705100953579,0.02686232328414917
1669803655.4183357,622,1669803655,417955509,imu_link,0.002920560305938125,-0.01474774070084095,0.018438661471009258
1669803655.4239147,623,1669803655,423366043,imu_link,0.0018424025038257243,-0.01623182557523251,0.03005640208721161
1669803655.428692,624,1669803655,427800990,imu_link,0.0018956417916342618,-0.014782749116420746,0.02890746854245663
1669803655.4333901,625,1669803655,433001053,imu_link,0.002237424952909351,-0.013246305286884308,0.019395403563976288
1669803655.4385328,626,1669803655,438201360,imu_link,0.002180707175284624,-0.012444603256881239,0.03119264915585518
1669803655.4436762,627,1669803655,443441722,imu_link,-0.00022718154650647196,-0.006444819737225772,0.036259725689888
1669803655.4488037,628,1669803655,448637163,imu_link,0.001525132334791124,-0.002311193849891424,0.02211406640708447
1669803655.4538703,629,1669803655,453036019,imu_link,-0.0011161643778905275,-0.00318356417119503,0.028397895395755768
1669803655.4589827,630,1669803655,458375618,imu_link,0.0019163031829521062,-0.0023395013995468616,0.03636926040053368
1669803655.4632015,631,1669803655,462626733,imu_link,0.0017791386926546695,-8.19058459455846e-06,0.02478361502289772
1669803655.468576,632,1669803655,467921985,imu_link,0.0006981330807320775,-0.0010543924290686846,0.0273145716637373
1669803655.473865,633,1669803655,473255043,imu_link,0.00043658947106450796,0.00269571109674871,0.032589580863714225
1669803655.479157,634,1669803655,478609010,imu_link,-0.0018038067501038313,0.003220792161300779,0.02529175579547882
1669803655.4836042,635,1669803655,482911314,imu_link,-0.0032387920655310154,0.005803979933261871,0.020250683650374416
1669803655.4891016,636,1669803655,488285077,imu_link,-0.004897959996014834,0.009963644668459892,0.03274531289935113
1669803655.4942145,637,1669803655,493617139,imu_link,-0.004269264172762633,0.006698785349726677,0.026476379483938217
1669803655.498645,638,1669803655,497993667,imu_link,-0.006356099620461464,0.005965020041912795,0.014658976346254349
1669803655.504126,639,1669803655,503386154,imu_link,-0.0047966386191546926,0.00564830331131816,0.020167235285043716
1669803655.508502,640,1669803655,507733144,imu_link,-0.006637033540755511,0.007591342553496361,0.02460405416786671
1669803655.513709,641,1669803655,513048571,imu_link,-0.008185215294361115,0.006761404220014811,0.010087332688272001
1669803655.5196402,642,1669803655,518936367,imu_link,-0.008897485211491585,0.004900277126580478,0.021139521151781082
1669803655.5234103,643,1669803655,522973571,imu_link,-0.007346337661147118,0.004640926606953144,0.023025264963507656
1669803655.5285082,644,1669803655,528179075,imu_link,-0.013254549354314804,0.0032848140690475707,0.011018004268407822
1669803655.5337093,645,1669803655,533412590,imu_link,-0.009242451749742033,-0.0006823694566264749,0.008390842005610466
1669803655.5379984,646,1669803655,537700493,imu_link,-0.011486520990729332,0.0015892280498519542,0.01869800314307213
1669803655.543126,647,1669803655,542917366,imu_link,-0.010392777621746063,-0.0049718208611011505,0.005295156035572291
1669803655.5492551,648,1669803655,548565618,imu_link,-0.011753309518098831,-0.004068715032190085,-0.0012002752628177404
1669803655.5549464,649,1669803655,554389986,imu_link,-0.013326845131814482,-0.0047482773661613464,0.012000653892755508
1669803655.5591323,650,1669803655,558669998,imu_link,-0.015252800658345222,-0.002959489589557052,0.005632652901113033
1669803655.5631673,651,1669803655,562866322,imu_link,-0.009652978740632536,-0.0012397301616147163,-0.008212774991989136
1669803655.568585,652,1669803655,568200397,imu_link,-0.011280951090157034,-0.004566398449242115,0.0044576781801879415
1669803655.5734904,653,1669803655,573322567,imu_link,-0.009213385172188284,-0.0021800664253532887,0.002828228287398815
1669803655.5782008,654,1669803655,577859603,imu_link,-0.008931097574532034,-0.0006340158870443702,-0.017508821561932567
1669803655.5838854,655,1669803655,583196658,imu_link,-0.010888285003602506,-0.0014453617623075845,-0.003958500921726227
1669803655.589372,656,1669803655,588582298,imu_link,-0.010576098226010801,-0.002083937171846628,-0.002901262836530805
1669803655.5934858,657,1669803655,592816116,imu_link,-0.01075566839426756,-0.004337062127888203,-0.013297019526362419
1669803655.5989935,658,1669803655,598317152,imu_link,-0.009649990126490593,-0.0015370344044640662,-0.010336192324757576
1669803655.60433,659,1669803655,603741827,imu_link,-0.011451547965407372,-0.0021934150718152523,0.0007815893623046578
1669803655.6086006,660,1669803655,608085338,imu_link,-0.006127342116087676,0.002262725494801998,-0.013308237306773664
1669803655.6141098,661,1669803655,613423430,imu_link,-0.008606165647506714,0.006230905186384917,-0.010006139986217024
1669803655.6185234,662,1669803655,617874906,imu_link,-0.007680056616663933,0.004943466279655696,-0.0004358298610895872
1669803655.6238258,663,1669803655,623170899,imu_link,-0.009348984807729721,0.007773927412927151,-0.006760673131793738
1669803655.6293418,664,1669803655,628630809,imu_link,-0.006814994849264622,0.0036724198143929247,-0.013645011931657791
1669803655.6335156,665,1669803655,632931033,imu_link,-0.007107137236744166,0.004688643850386143,-0.004310871474444866
1669803655.6388865,666,1669803655,638235747,imu_link,-0.009517393074929716,0.0028028651140630245,-0.004893528763204814
1669803655.6442435,667,1669803655,643590173,imu_link,-0.010013586841523649,0.0036142717581242327,-0.015075501054525375
1669803655.6484597,668,1669803655,647847955,imu_link,-0.008340927772223951,0.004215533845126629,-0.004822765942662955
1669803655.6538253,669,1669803655,653153151,imu_link,-0.007653972599655391,0.004608937539160252,-0.0071264831349253654
1669803655.6587574,670,1669803655,658365064,imu_link,-0.006119916681200267,0.00584129523485899,-0.017730129882693294
1669803655.663977,671,1669803655,663675831,imu_link,-0.007197985425591469,0.006457459181547165,-0.007210654672235251
1669803655.668614,672,1669803655,668034930,imu_link,-0.008382655680179596,0.007533257361501456,-0.00662656407803297
1669803655.6735823,673,1669803655,673204075,imu_link,-0.0089101092889905,0.0052123842760920525,-0.01612681895494461
1669803655.6789322,674,1669803655,678548141,imu_link,-0.011254818178713323,0.0015311092138290405,-0.012479751370847227
1669803655.683643,675,1669803655,682876974,imu_link,-0.0067889667116105565,0.0037573326844722037,-0.003577770199626684
1669803655.6888971,676,1669803655,688355024,imu_link,-0.010051605291664602,0.0027395724318921566,-0.01556201744824648
1669803655.6939518,677,1669803655,693638012,imu_link,-0.00598724652081728,0.0035196922253817324,-0.017490243539214138
1669803655.6982608,678,1669803655,697894004,imu_link,-0.007231534458696842,0.006423151586204768,-0.007507944479584694
1669803655.7036192,679,1669803655,703163504,imu_link,-0.010032924823462965,0.005650483537465335,-0.012857504189014435
1669803655.7089221,680,1669803655,708484688,imu_link,-0.00993903260678053,0.00476031843572855,-0.02330540679395199
1669803655.7132733,681,1669803655,712816500,imu_link,-0.01284924801439047,0.006832268089056015,-0.011016406118869781
1669803655.7184687,682,1669803655,718109934,imu_link,-0.011095471680164337,0.008723794482648374,-0.01597628742456436
1669803655.7237344,683,1669803655,723418106,imu_link,-0.01282461825758219,0.007767199072986842,-0.027481503784656525
1669803655.7279077,684,1669803655,727691123,imu_link,-0.015778064727783203,0.006193027365952731,-0.014535322785377502
1669803655.7333655,685,1669803655,732899861,imu_link,-0.010335507802665235,0.01019309088587761,-0.014622502028942108
1669803655.738551,686,1669803655,738114415,imu_link,-0.010776507668197157,0.012902818620204926,-0.02800306119024754
1669803655.7442312,687,1669803655,743431029,imu_link,-0.01606710441410542,0.010462197475135328,-0.024763505905866623
1669803655.748361,688,1669803655,747742892,imu_link,-0.01280604861676693,0.01334399823099375,-0.016774237155914307
1669803655.753459,689,1669803655,753013843,imu_link,-0.015147897414863111,0.007874425500631332,-0.03435534983873367
1669803655.758571,690,1669803655,758339808,imu_link,-0.01571398600935936,0.005805538501590491,-0.03119112178683281
1669803655.764609,691,1669803655,763891453,imu_link,-0.014921323396265508,0.010103651322424414,-0.020688779652118683
1669803655.7688427,692,1669803655,768199192,imu_link,-0.015211157500743866,0.005941064562648536,-0.03317517787218094
1669803655.77444,693,1669803655,773637775,imu_link,-0.015561278909444809,0.006110360380262137,-0.041919190436601646
1669803655.7786212,694,1669803655,777969541,imu_link,-0.013685264624655248,0.008691903203725815,-0.028165398165583614
1669803655.7839594,695,1669803655,783365192,imu_link,-0.01598451100289822,0.0025964633096009497,-0.03594903647899628
1669803655.7892275,696,1669803655,788661302,imu_link,-0.017535828053951263,0.005691591184586287,-0.041150979697704315
1669803655.7934453,697,1669803655,792936073,imu_link,-0.014098010025918485,0.003700049128383398,-0.03453640639781952
1669803655.7986157,698,1669803655,798166322,imu_link,-0.017458999529480938,0.0027022049762308598,-0.03507805988192559
1669803655.803772,699,1669803655,803472667,imu_link,-0.013339645229279997,-0.0007771175005473198,-0.05205642431974411
1669803655.8079433,700,1669803655,807727234,imu_link,-0.017719045281410217,0.0003457984712440521,-0.049474067986011505
1669803655.8132763,701,1669803655,812949470,imu_link,-0.011001421138644218,-0.0031726665329188113,-0.043971110135316856
1669803655.818621,702,1669803655,818237493,imu_link,-0.015377108007669449,0.004222451243549586,-0.05180317163467407
1669803655.8238466,703,1669803655,823617117,imu_link,-0.01597530581057072,0.0037560143973678355,-0.05372545123100281
1669803655.8280604,704,1669803655,827881332,imu_link,-0.012167527340352537,0.00042162800673395395,-0.04337431117892266
1669803655.833626,705,1669803655,833217439,imu_link,-0.012163685634732246,0.0003992254205513746,-0.055067282170057304
1669803655.839339,706,1669803655,838588074,imu_link,-0.014284372329711914,-0.0005135877872817219,-0.05618628114461899
1669803655.843482,707,1669803655,842806932,imu_link,-0.014585835859179497,-0.002041206695139408,-0.04389292374253274
1669803655.8483894,708,1669803655,848098340,imu_link,-0.012642281129956245,0.0007554774056188763,-0.050126731395721436
1669803655.8536477,709,1669803655,853241818,imu_link,-0.013175866566598417,0.0008627010975033045,-0.056055136024951935
1669803655.8587785,710,1669803655,858479498,imu_link,-0.00996667053550482,-0.004102296195924282,-0.04993677511811257
1669803655.8629653,711,1669803655,862700980,imu_link,-0.008968900889158249,-0.001947680488228798,-0.04650356993079186
1669803655.8690515,712,1669803655,868068425,imu_link,-0.012303990311920645,-0.0017099075485020876,-0.06020364537835122
1669803655.8740296,713,1669803655,873355552,imu_link,-0.01367486920207739,9.317898366134614e-05,-0.050513431429862976
1669803655.8793147,714,1669803655,878704847,imu_link,-0.012809039093554022,-0.0036246911622583866,-0.044543292373418815
1669803655.8837538,715,1669803655,883037327,imu_link,-0.008989927358925344,0.0005277364398352803,-0.05116536468267441
1669803655.8891575,716,1669803655,888339315,imu_link,-0.009584373794496061,0.001362204784527421,-0.04903823509812356
1669803655.8944886,717,1669803655,893752672,imu_link,-0.01371587533503771,0.000736188143491745,-0.03381367772817612
1669803655.8987236,718,1669803655,898073128,imu_link,-0.010362902656197548,-0.002236125292256475,-0.04848393052816391
1669803655.9041934,719,1669803655,903434003,imu_link,-0.011539411731064321,-0.0012137904996052387,-0.04443527013063431
1669803655.9085338,720,1669803655,907768836,imu_link,-0.009187255054712296,0.0014417428756132724,-0.029042378067970276
1669803655.913917,721,1669803655,913135554,imu_link,-0.008401986211538315,-0.0018201767234131696,-0.036856543272733695
1669803655.9189103,722,1669803655,918421847,imu_link,-0.011077598668634893,-0.0021591512486338615,-0.036945190280675895
1669803655.923237,723,1669803655,922751851,imu_link,-0.010360874235630035,-0.007132421247661114,-0.028992416337132457
1669803655.9284258,724,1669803655,928006343,imu_link,-0.012616043910384178,-0.0060983612202107915,-0.02382546290755272
1669803655.9336073,725,1669803655,933233086,imu_link,-0.010326431132853033,-0.005660208873450756,-0.034309953451156616
1669803655.939188,726,1669803655,938646854,imu_link,-0.009825119748711586,-0.0073022409342229375,-0.022268302738666534
1669803655.9433105,727,1669803655,942962074,imu_link,-0.006607158575206996,-0.009627715684473516,-0.016912035644054413
1669803655.949137,728,1669803655,948448216,imu_link,-0.008081693202257156,-0.008053346537053587,-0.023759134113788605
1669803655.9532747,729,1669803655,952806323,imu_link,-0.012059587053954603,-0.007307460531592369,-0.019098050892353058
1669803655.9585474,730,1669803655,958062180,imu_link,-0.010432275012135506,-0.006057350430637599,-0.005804021842777729
1669803655.9638655,731,1669803655,963323351,imu_link,-0.008805056102573873,-0.007594425696879626,-0.01356750912964344
1669803655.9691062,732,1669803655,968689869,imu_link,-0.00959634315222502,-0.00656694732606411,-0.00997260306030512
1669803655.9732969,733,1669803655,972892326,imu_link,-0.00752659235149622,-0.0030845350120216612,0.002951890463009477
1669803655.978609,734,1669803655,978172405,imu_link,-0.007994439452886581,-0.004208096768707038,-0.005511235445737839
1669803655.9838648,735,1669803655,983427113,imu_link,-0.005825602915138007,-0.00101030629593879,-0.00816136971116066
1669803655.9882977,736,1669803655,987822409,imu_link,-0.0065006217919290074,0.0035934094339609146,0.006831450853496791
1669803655.9934797,737,1669803655,993098236,imu_link,-0.009434681385755539,0.002178496448323131,0.0053554787300527104
1669803655.9992945,738,1669803655,998418729,imu_link,-0.00981091894209385,-0.0004775921988766641,0.00217483751475811
1669803656.0034375,739,1669803656,2739695,imu_link,-0.00865459069609642,0.004698397591710091,0.013705323450267317
1669803656.008754,740,1669803656,8042535,imu_link,-0.0080064469948411,0.00671516265720129,0.01611709035933018
1669803656.0141418,741,1669803656,13535679,imu_link,-0.010072424076497557,0.0040702810510993,0.0031665130518376827
1669803656.0185227,742,1669803656,17824165,imu_link,-0.010468802414834501,0.006276440806686878,0.011382964439690115
1669803656.0236042,743,1669803656,23078548,imu_link,-0.011687709949910642,0.004045603331178428,0.020631425082683563
1669803656.0292037,744,1669803656,28409356,imu_link,-0.01342817023396492,0.0010140339145436885,0.005401698872447014
1669803656.0334446,745,1669803656,32787267,imu_link,-0.016009790822863582,0.0009760888060554862,0.008615134283900261
1669803656.040171,746,1669803656,38207771,imu_link,-0.00857928115874529,-0.0014514292124658823,0.019956404343247417
1669803656.0439472,747,1669803656,43439254,imu_link,-0.010824186727404594,0.0029734885320067406,0.009186598472297193
1669803656.0491726,748,1669803656,48786245,imu_link,-0.015564234927296638,0.0043452982790768155,0.010362263768911362
1669803656.0534933,749,1669803656,53100429,imu_link,-0.013548227958381178,8.044549031183124e-05,0.023274816572666168
1669803656.058795,750,1669803656,58424737,imu_link,-0.010272137820720673,-0.000340483122272417,0.011277923360466957
1669803656.0630255,751,1669803656,62725875,imu_link,-0.007822368294000626,-0.0012025602627545595,0.008483222685754301
1669803656.0682578,752,1669803656,67999579,imu_link,-0.009486804716289045,0.002722516655921936,0.016613306477665905
1669803656.0742905,753,1669803656,73451411,imu_link,-0.01058734767138958,0.001626325189135969,0.011959628202021124
1669803656.0783389,754,1669803656,77905281,imu_link,-0.010332461446523666,-0.00022795896802563223,0.002310448791831732
1669803656.0836008,755,1669803656,83205415,imu_link,-0.012322497554123403,0.0028245651628822093,0.011080514639616013
1669803656.0889769,756,1669803656,88666745,imu_link,-0.008294788189232351,2.53468933806289e-05,0.014002592302858831
1669803656.0932107,757,1669803656,92881721,imu_link,-0.004401045851409435,-0.0019699579570442442,0.00023322373453993353
1669803656.098508,758,1669803656,98145736,imu_link,-0.004321353044360877,-0.002215015236288309,0.003595656948164106
1669803656.1038764,759,1669803656,103470205,imu_link,-0.004628332331776619,-0.0036217686720192432,0.014261138625442983
1669803656.1081772,760,1669803656,107818625,imu_link,-0.00731348991394043,-0.0007011086563579739,0.0001497448538430035
1669803656.1133804,761,1669803656,113023490,imu_link,-0.005160279106348754,-0.0010758452117443085,0.001714371144771576
