Time,header.seq,header.stamp.secs,header.stamp.nsecs,header.frame_id,vector.x,vector.y,vector.z
1669803496.146921,258,1669803496,146093128,imu_link,1.5563613176345827,0.42171692848205566,9.577875137329102
1669803496.15164,259,1669803496,151411847,imu_link,1.5651440620422363,0.37479835748672485,9.597023010253906
1669803496.15701,260,1669803496,156716359,imu_link,1.604541540145874,0.37232199311256414,9.621038436889648
1669803496.1616726,261,1669803496,161043360,imu_link,1.5819572210311892,0.42500844597816473,9.614191055297852
1669803496.1669803,262,1669803496,166476165,imu_link,1.5775938034057617,0.36202186346054077,9.619489669799805
1669803496.1724699,263,1669803496,172001439,imu_link,1.519106388092041,0.3317955732345581,9.608065605163576
1669803496.1766853,264,1669803496,176299837,imu_link,1.5395162105560303,0.37616467475891113,9.586602210998537
1669803496.1825998,265,1669803496,181736780,imu_link,1.5531814098358154,0.3654736280441284,9.58222770690918
1669803496.1863766,266,1669803496,186020409,imu_link,1.5156633853912354,0.33484160900115967,9.616431236267092
1669803496.1915395,267,1669803496,191282002,imu_link,1.5394830703735352,0.35534474253654486,9.600259780883789
1669803496.196969,268,1669803496,196698000,imu_link,1.557732701301575,0.3876962363719941,9.582664489746094
1669803496.2013001,269,1669803496,201033321,imu_link,1.5435893535614014,0.33468410372734075,9.627087593078615
1669803496.206646,270,1669803496,206407701,imu_link,1.5602350234985352,0.3614962995052338,9.604970932006836
1669803496.2123601,271,1669803496,211825234,imu_link,1.603006362915039,0.3709984719753266,9.60401725769043
1669803496.2169366,272,1669803496,216233813,imu_link,1.5617908239364626,0.3439199924468994,9.626048088073732
1669803496.2222307,273,1669803496,221738144,imu_link,1.5462549924850466,0.33660188317298895,9.65536880493164
1669803496.2265391,274,1669803496,226090497,imu_link,1.5737527608871462,0.38218858838081365,9.631951332092287
1669803496.2317297,275,1669803496,231374595,imu_link,1.5707525014877322,0.3673014342784882,9.65640640258789
1669803496.237228,276,1669803496,236808300,imu_link,1.516007661819458,0.38902255892753607,9.68376350402832
1669803496.2414389,277,1669803496,241019422,imu_link,1.5234519243240359,0.4390102922916413,9.653997421264648
1669803496.2467752,278,1669803496,246454486,imu_link,1.5485953092575075,0.43456569314002996,9.657203674316406
1669803496.2521448,279,1669803496,251890002,imu_link,1.555232882499695,0.41691735386848455,9.694571495056154
1669803496.2563818,280,1669803496,256134078,imu_link,1.5725364685058594,0.4602319002151489,9.69327163696289
1669803496.261709,281,1669803496,261482224,imu_link,1.5848387479782107,0.47403755784034735,9.687928199768068
1669803496.2672079,282,1669803496,266898144,imu_link,1.5795992612838747,0.4421905279159546,9.713851928710938
1669803496.271433,283,1669803496,271193922,imu_link,1.5945487022399902,0.4361117780208588,9.709928512573242
1669803496.2768202,284,1669803496,276588181,imu_link,1.6683475971221924,0.44653069972991943,9.697074890136719
1669803496.2821856,285,1669803496,281952156,imu_link,1.6602199077606201,0.41321888566017156,9.711286544799805
1669803496.2865014,286,1669803496,286213438,imu_link,1.6944965124130251,0.4130294024944306,9.718300819396974
1669803496.2917764,287,1669803496,291484795,imu_link,1.7327567338943484,0.44711124897003174,9.691024780273438
1669803496.2970777,288,1669803496,296865167,imu_link,1.7089930772781374,0.4349374771118164,9.694519996643068
1669803496.3013608,289,1669803496,301113834,imu_link,1.736918091773987,0.4050847291946411,9.715702056884766
1669803496.3067837,290,1669803496,306505172,imu_link,1.7620410919189453,0.44072833657264715,9.68777370452881
1669803496.3120282,291,1669803496,311773080,imu_link,1.7783695459365847,0.41704434156417847,9.683899879455568
1669803496.3164911,292,1669803496,316078399,imu_link,1.7425520420074463,0.41369554400444036,9.717385292053224
1669803496.3224268,293,1669803496,321692165,imu_link,1.7303453683853152,0.430641919374466,9.657996177673342
1669803496.3267162,294,1669803496,326142490,imu_link,1.7696685791015625,0.4178771376609802,9.655906677246094
1669803496.3320951,295,1669803496,331517135,imu_link,1.7315611839294434,0.39052620530128485,9.674803733825685
1669803496.3374276,296,1669803496,337023944,imu_link,1.7372075319290163,0.41316747665405273,9.660649299621584
1669803496.3416095,297,1669803496,341289993,imu_link,1.7451962232589724,0.42295381426811224,9.657970428466797
1669803496.3469322,298,1669803496,346623698,imu_link,1.708585262298584,0.4058478772640229,9.689785957336428
1669803496.3522947,299,1669803496,351912848,imu_link,1.6965093612670898,0.4132980406284333,9.695127487182617
1669803496.3563645,300,1669803496,356099791,imu_link,1.7163643836975098,0.4544390738010407,9.670569419860842
1669803496.36166,301,1669803496,361393292,imu_link,1.636862397193909,0.4609028697013855,9.681050300598146
1669803496.3676102,302,1669803496,366979586,imu_link,1.6040133237838747,0.4515515267848969,9.694639205932617
1669803496.3717563,303,1669803496,371356000,imu_link,1.614882230758667,0.4793791174888611,9.669633865356445
1669803496.377308,304,1669803496,376832223,imu_link,1.6016294956207275,0.482308715581894,9.679295539855959
1669803496.3813727,305,1669803496,381105951,imu_link,1.605940818786621,0.45347717404365545,9.703720092773438
1669803496.3869383,306,1669803496,386492492,imu_link,1.6109364032745361,0.4788706004619599,9.693379402160646
1669803496.3919632,307,1669803496,391782080,imu_link,1.6063928604125977,0.4853183329105378,9.687640190124513
1669803496.3963294,308,1669803496,396052888,imu_link,1.5569659471511843,0.4347110986709595,9.71214008331299
1669803496.4016585,309,1669803496,401372287,imu_link,1.5394557714462282,0.5040755271911621,9.689660072326662
1669803496.4069064,310,1669803496,406702674,imu_link,1.5665571689605713,0.5244936347007753,9.657649993896484
1669803496.4110103,311,1669803496,410879083,imu_link,1.5337088108062744,0.5249680280685425,9.686090469360352
1669803496.4170196,312,1669803496,416349831,imu_link,1.5596811771392822,0.5487584471702577,9.66244888305664
1669803496.4223044,313,1669803496,421887242,imu_link,1.5840443372726443,0.5825114250183105,9.649391174316406
1669803496.426556,314,1669803496,426245402,imu_link,1.635981559753418,0.5565961599349976,9.662311553955078
1669803496.4319525,315,1669803496,431668114,imu_link,1.6301115751266482,0.5113094449043275,9.682229995727539
1669803496.4364831,316,1669803496,435992387,imu_link,1.6579178571701052,0.5205268263816835,9.653825759887695
1669803496.4415588,317,1669803496,441354027,imu_link,1.6400811672210693,0.4819912314414978,9.647226333618164
1669803496.446925,318,1669803496,446676436,imu_link,1.661633372306824,0.4062601327896118,9.667975425720217
1669803496.4521449,319,1669803496,451906407,imu_link,1.736856460571289,0.4104594588279724,9.68387222290039
1669803496.4564009,320,1669803496,456179092,imu_link,1.775855898857117,0.39719864726066595,9.669305801391602
1669803496.4618468,321,1669803496,461408063,imu_link,1.7725158929824831,0.39140963554382324,9.702661514282227
1669803496.466918,322,1669803496,466662087,imu_link,1.7518689632415771,0.4564294219017029,9.696778297424318
1669803496.4732687,323,1669803496,472980913,imu_link,1.740739703178406,0.4860312640666962,9.680034637451172
1669803496.4763746,324,1669803496,476111910,imu_link,1.69391143321991,0.47136220335960394,9.716720581054688
1669803496.4822652,325,1669803496,481593766,imu_link,1.6698284149169922,0.5064328312873841,9.714212417602539
1669803496.486603,326,1669803496,486033641,imu_link,1.688176989555359,0.5399492383003236,9.694687843322756
1669803496.4919002,327,1669803496,491485518,imu_link,1.6934927701950075,0.49159830808639526,9.737102508544922
1669803496.497656,328,1669803496,496855398,imu_link,1.71623170375824,0.4284619688987732,9.725988388061523
1669803496.5015554,329,1669803496,501073524,imu_link,1.747077465057373,0.42622509598732,9.697800636291506
1669803496.506543,330,1669803496,506346131,imu_link,1.7358746528625488,0.35190424323081976,9.69236469268799
1669803496.5119889,331,1669803496,511613156,imu_link,1.667100429534912,0.31490555405616766,9.723626136779787
1669803496.5172215,332,1669803496,516916029,imu_link,1.6558896303176882,0.34105983376502996,9.664012908935547
1669803496.521433,333,1669803496,521233968,imu_link,1.639416575431824,0.34451028704643255,9.631488800048828
1669803496.5269718,334,1669803496,526537621,imu_link,1.6256874799728396,0.2964865565299988,9.640433311462404
1669803496.5320952,335,1669803496,531865176,imu_link,1.6497131586074831,0.3451947569847107,9.615385055541992
1669803496.536882,336,1669803496,536194731,imu_link,1.6752272844314577,0.38104811310768133,9.58695697784424
1669803496.5421808,337,1669803496,541603524,imu_link,1.6224807500839236,0.3629070520401001,9.598498344421388
1669803496.5486991,338,1669803496,548165363,imu_link,1.6157209873199463,0.37564021348953247,9.583666801452638
1669803496.5518193,339,1669803496,551360072,imu_link,1.6423888206481934,0.3529923856258393,9.556451797485352
1669803496.5569324,340,1669803496,556671384,imu_link,1.611487627029419,0.3037862181663513,9.565017700195312
1669803496.5611138,341,1669803496,560923288,imu_link,1.5548938512802126,0.270782470703125,9.584473609924318
1669803496.5665317,342,1669803496,566274541,imu_link,1.4996075630187988,0.28942313790321356,9.524332046508789
1669803496.57196,343,1669803496,571692745,imu_link,1.5006506443023682,0.24196021258831027,9.570118904113771
1669803496.576168,344,1669803496,575891720,imu_link,1.485187888145447,0.21097052097320557,9.585301399230959
1669803496.5816154,345,1669803496,581228145,imu_link,1.5098190307617188,0.24233634769916537,9.601452827453615
1669803496.5867224,346,1669803496,586484874,imu_link,1.5122654438018799,0.2622947692871094,9.584900856018068
1669803496.5920367,347,1669803496,591823336,imu_link,1.4775005578994753,0.2949682176113129,9.64473628997803
1669803496.5963829,348,1669803496,596033634,imu_link,1.500692963600159,0.3293152749538422,9.633594512939453
1669803496.6015615,349,1669803496,601319683,imu_link,1.5142238140106201,0.37489679455757147,9.61288070678711
1669803496.6069458,350,1669803496,606658358,imu_link,1.5174801349639893,0.3450408875942231,9.66127109527588
1669803496.6111758,351,1669803496,610967588,imu_link,1.5429204702377322,0.36831730604171753,9.665444374084474
1669803496.6164439,352,1669803496,616210044,imu_link,1.5827866792678835,0.3752483129501343,9.674586296081545
1669803496.6218004,353,1669803496,621557163,imu_link,1.5710198879241943,0.3403671979904175,9.714681625366211
1669803496.6281989,354,1669803496,627939785,imu_link,1.581955909729004,0.3299294710159302,9.707916259765625
1669803496.6313517,355,1669803496,631157970,imu_link,1.6031097173690798,0.35502880811691284,9.686481475830078
1669803496.6375678,356,1669803496,636787979,imu_link,1.5786573886871338,0.3621333837509155,9.711761474609375
1669803496.6416705,357,1669803496,641199243,imu_link,1.5842288732528689,0.3752134442329407,9.713166236877443
1669803496.6467924,358,1669803496,646450663,imu_link,1.6167663335800173,0.4203890562057495,9.694303512573242
1669803496.652145,359,1669803496,651873494,imu_link,1.6559879779815674,0.4339925944805146,9.693140983581545
1669803496.656406,360,1669803496,656206609,imu_link,1.645613431930542,0.42951321601867676,9.706876754760742
1669803496.6617103,361,1669803496,661378205,imu_link,1.64674973487854,0.4527585506439209,9.70806407928467
1669803496.6669738,362,1669803496,666697227,imu_link,1.661377549171448,0.46186602115631104,9.667731285095217
1669803496.6722152,363,1669803496,671945252,imu_link,1.6233255863189697,0.421186625957489,9.70436191558838
1669803496.6763632,364,1669803496,676177745,imu_link,1.638394832611084,0.38480275869369507,9.690153121948242
1669803496.6817534,365,1669803496,681487611,imu_link,1.6672197580337527,0.359738975763321,9.666038513183594
1669803496.6877546,366,1669803496,686823205,imu_link,1.642883539199829,0.32918950915336614,9.688226699829102
1669803496.691784,367,1669803496,691185868,imu_link,1.6472465991973877,0.30043026804924017,9.694441795349123
1669803496.6971385,368,1669803496,696613784,imu_link,1.6974385976791384,0.3097996115684509,9.677653312683107
1669803496.7034137,369,1669803496,703044380,imu_link,1.7023524045944216,0.2777310013771057,9.680278778076172
1669803496.7065449,370,1669803496,706248985,imu_link,1.6830829381942751,0.3004880845546723,9.69404697418213
1669803496.7120693,371,1669803496,711567916,imu_link,1.6789544820785525,0.3313598036766052,9.65186405181885
1669803496.7177725,372,1669803496,717092635,imu_link,1.6470011472702029,0.34621325135231024,9.652759552001953
1669803496.7219985,373,1669803496,721360301,imu_link,1.6271214485168457,0.3168228268623352,9.697196006774904
1669803496.7270608,374,1669803496,726792807,imu_link,1.628205180168152,0.3455756902694702,9.644951820373537
1669803496.7313488,375,1669803496,731058840,imu_link,1.6159183979034424,0.3423843085765839,9.641652107238771
1669803496.7368588,376,1669803496,736460134,imu_link,1.5937665700912478,0.2978004813194275,9.654713630676271
1669803496.7421324,377,1669803496,741682176,imu_link,1.5782549381256104,0.2860191762447358,9.641136169433594
1669803496.7471774,378,1669803496,746913433,imu_link,1.5925090312957764,0.30264434218406683,9.619962692260742
1669803496.7514515,379,1669803496,751158709,imu_link,1.5700038671493532,0.25426459312438965,9.662262916564943
1669803496.756671,380,1669803496,756418137,imu_link,1.5424649715423584,0.2827059924602509,9.67365837097168
1669803496.7620132,381,1669803496,761732271,imu_link,1.535955309867859,0.32756757736206055,9.634133338928224
1669803496.766241,382,1669803496,766009938,imu_link,1.517798900604248,0.33312052488327026,9.644281387329102
1669803496.771586,383,1669803496,771366869,imu_link,1.5318466424942019,0.31404474377632147,9.64852523803711
1669803496.7771573,384,1669803496,776669991,imu_link,1.5604212284088135,0.3414381146430969,9.632552146911623
1669803496.7836688,385,1669803496,783102166,imu_link,1.5797671079635622,0.33164405822753906,9.647310256958008
1669803496.7868254,386,1669803496,786301510,imu_link,1.5241587162017822,0.30417704582214355,9.664401054382326
1669803496.7919164,387,1669803496,791578664,imu_link,1.515728235244751,0.3323915302753449,9.636385917663576
1669803496.797337,388,1669803496,796975212,imu_link,1.512233018875122,0.3164916932582856,9.616028785705568
1669803496.8014965,389,1669803496,801147784,imu_link,1.4746903181076052,0.29166823625564575,9.67109489440918
1669803496.8067744,390,1669803496,806490237,imu_link,1.4873859882354736,0.3201228976249695,9.651355743408203
1669803496.8119795,391,1669803496,811741627,imu_link,1.5314720869064333,0.3245484232902527,9.634837150573732
1669803496.8162737,392,1669803496,815964502,imu_link,1.5119538307189941,0.32296526432037354,9.6708984375
1669803496.8220892,393,1669803496,821506991,imu_link,1.5104498863220215,0.33625465631484985,9.63277816772461
1669803496.8275015,394,1669803496,826995530,imu_link,1.551896095275879,0.35761806368827825,9.623454093933107
1669803496.8317637,395,1669803496,831314158,imu_link,1.5660110712051394,0.3508599698543549,9.65718746185303
1669803496.8369622,396,1669803496,836621732,imu_link,1.5776362419128418,0.3363176882266999,9.673169136047365
1669803496.8432877,397,1669803496,843020611,imu_link,1.6137371063232422,0.34041967988014227,9.667962074279787
1669803496.8467486,398,1669803496,846266258,imu_link,1.6412217617034912,0.3069959282875061,9.686764717102053
1669803496.852124,399,1669803496,851660227,imu_link,1.6649616956710818,0.2626979053020478,9.735999107360842
1669803496.8572,400,1669803496,856928022,imu_link,1.705210328102112,0.2792372703552246,9.720477104187013
1669803496.8614447,401,1669803496,861190154,imu_link,1.6906774044036865,0.30689683556556707,9.72439479827881
1669803496.8667774,402,1669803496,866540242,imu_link,1.6230119466781618,0.3133641481399536,9.755895614624023
1669803496.8719473,403,1669803496,871784037,imu_link,1.5946640968322754,0.32216876745224,9.732312202453615
1669803496.8761847,404,1669803496,875976926,imu_link,1.590182423591614,0.38141182065010076,9.729441642761232
1669803496.881622,405,1669803496,881268239,imu_link,1.6063876152038574,0.37322700023651123,9.743027687072756
1669803496.8870437,406,1669803496,886619795,imu_link,1.6305474042892458,0.3651666939258576,9.752721786499023
1669803496.892232,407,1669803496,891871199,imu_link,1.6482681035995486,0.399802714586258,9.712156295776367
1669803496.8963199,408,1669803496,896094304,imu_link,1.6555014848709109,0.34815016388893133,9.704194068908693
1669803496.901768,409,1669803496,901465445,imu_link,1.6655828952789307,0.3084141314029694,9.70151996612549
1669803496.9070592,410,1669803496,906727327,imu_link,1.6782323122024538,0.3257214426994324,9.636034965515138
1669803496.9132762,411,1669803496,912992484,imu_link,1.642754316329956,0.3089832961559296,9.63286018371582
1669803496.9163795,412,1669803496,916117398,imu_link,1.553816556930542,0.294473022222519,9.599285125732422
1669803496.9216337,413,1669803496,921365644,imu_link,1.5686365365982058,0.32379922270774847,9.575712203979492
1669803496.926978,414,1669803496,926625466,imu_link,1.582331895828247,0.32490092515945435,9.563413619995117
1669803496.933716,415,1669803496,933070122,imu_link,1.6002013683319092,0.2910354733467102,9.5908899307251
1669803496.93677,416,1669803496,936263278,imu_link,1.6146736145019531,0.3133435845375061,9.583154678344727
1669803496.9423728,417,1669803496,941720434,imu_link,1.6025424003601074,0.33737596869468695,9.571944236755373
1669803496.9487762,418,1669803496,948126932,imu_link,1.5553144216537478,0.27336031198501587,9.609817504882812
1669803496.9518006,419,1669803496,951295338,imu_link,1.527609705924988,0.24267655611038208,9.590521812438967
1669803496.957015,420,1669803496,956658719,imu_link,1.546363353729248,0.23185242712497714,9.58926010131836
1669803496.9622216,421,1669803496,961926311,imu_link,1.4955921173095703,0.19904668629169467,9.629553794860842
1669803496.9664989,422,1669803496,966163707,imu_link,1.4905484914779665,0.16125309467315674,9.634858131408693
1669803496.9718556,423,1669803496,971468290,imu_link,1.5128977298736572,0.16318488121032715,9.611005783081055
1669803496.9774797,424,1669803496,976916429,imu_link,1.548386573791504,0.14735528826713562,9.622552871704102
1669803496.9820895,425,1669803496,981264060,imu_link,1.53485107421875,0.14506869018077853,9.677048683166506
1669803496.9872904,426,1669803496,986688853,imu_link,1.5339516401290896,0.20474137365818026,9.61158561706543
1669803496.9934056,427,1669803496,993040640,imu_link,1.5285217761993408,0.24486872553825378,9.625995635986328
1669803496.9964797,428,1669803496,996198978,imu_link,1.539603114128113,0.2601560950279236,9.668581008911133
1669803497.001846,429,1669803497,1479807,imu_link,1.5837736129760742,0.29231518507003784,9.65349006652832
1669803497.0070539,430,1669803497,6819256,imu_link,1.6299817562103271,0.3305995166301728,9.659714698791506
1669803497.0118935,431,1669803497,11167435,imu_link,1.6027398109436035,0.3288481831550598,9.681413650512695
1669803497.017255,432,1669803497,16616042,imu_link,1.5891730785369873,0.3309379816055298,9.706421852111818
1669803497.023542,433,1669803497,23052987,imu_link,1.563241720199585,0.37172234058380127,9.6693811416626
1669803497.0265996,434,1669803497,26252930,imu_link,1.561653017997742,0.30251255631446844,9.714466094970703
1669803497.0317852,435,1669803497,31517174,imu_link,1.55599582195282,0.2827537953853608,9.709710121154787
1669803497.0372214,436,1669803497,36895757,imu_link,1.608290195465088,0.29332494735717773,9.714461326599123
1669803497.0413506,437,1669803497,41128547,imu_link,1.6158646345138552,0.30498605966567993,9.729290008544922
1669803497.04721,438,1669803497,46552794,imu_link,1.609936594963074,0.3049033284187317,9.72500991821289
1669803497.0526247,439,1669803497,51971981,imu_link,1.6657533645629883,0.3384132981300354,9.693068504333498
1669803497.056925,440,1669803497,56289494,imu_link,1.667190194129944,0.3909539580345154,9.716554641723633
1669803497.0619702,441,1669803497,61679479,imu_link,1.6460515260696413,0.3961168229579926,9.741106033325195
1669803497.0683417,442,1669803497,68010555,imu_link,1.6381975412368777,0.415705144405365,9.680294036865234
1669803497.0713904,443,1669803497,71160501,imu_link,1.6692413091659548,0.415874183177948,9.670541763305664
1669803497.0767546,444,1669803497,76474538,imu_link,1.6756378412246706,0.3590900003910065,9.687524795532227
1669803497.0824847,445,1669803497,81867137,imu_link,1.6895996332168581,0.35963389277458196,9.684350013732912
1669803497.0868843,446,1669803497,86209465,imu_link,1.735166311264038,0.3432896137237549,9.656574249267578
1669803497.0920417,447,1669803497,91550477,imu_link,1.739992618560791,0.279433012008667,9.69395637512207
1669803497.0971682,448,1669803497,96885233,imu_link,1.7142610549926758,0.25728076696395874,9.665324211120607
1669803497.1013331,449,1669803497,101123865,imu_link,1.7343366146087646,0.261843353509903,9.631447792053224
1669803497.1066892,450,1669803497,106482504,imu_link,1.7032885551452637,0.2694849073886872,9.663965225219727
1669803497.1119673,451,1669803497,111806980,imu_link,1.6574883460998535,0.27831426262855535,9.687214851379396
1669803497.116849,452,1669803497,116159932,imu_link,1.6668965816497803,0.314918726682663,9.634191513061523
1669803497.1223552,453,1669803497,121626487,imu_link,1.6723837852478027,0.33343312144279486,9.637503623962404
1669803497.1274223,454,1669803497,126923396,imu_link,1.658668398857117,0.3005473017692566,9.682159423828125
1669803497.1314607,455,1669803497,131176737,imu_link,1.6485340595245361,0.33999598026275635,9.655364990234375
1669803497.1368437,456,1669803497,136534485,imu_link,1.6219396591186523,0.3397203385829926,9.646158218383789
1669803497.14213,457,1669803497,141860421,imu_link,1.5627801418304443,0.3276187777519226,9.67738437652588
1669803497.1464646,458,1669803497,146159516,imu_link,1.5507869720458984,0.2901601195335388,9.635725021362305
1669803497.1522567,459,1669803497,151544021,imu_link,1.537567377090454,0.3170171678066254,9.59480953216553
1669803497.157775,460,1669803497,157045571,imu_link,1.5239049196243288,0.27286329865455633,9.631071090698242
1669803497.1621528,461,1669803497,161479269,imu_link,1.5394431352615359,0.28464794158935547,9.636260986328125
1669803497.167343,462,1669803497,166945470,imu_link,1.549771785736084,0.32635241746902466,9.617502212524414
1669803497.1721017,463,1669803497,171336186,imu_link,1.5395981073379519,0.32243454456329346,9.63167953491211
1669803497.1770823,464,1669803497,176772403,imu_link,1.525156021118164,0.31244120001792913,9.632248878479006
1669803497.1814163,465,1669803497,181068192,imu_link,1.5292547941207888,0.3589013516902924,9.61303234100342
1669803497.186619,466,1669803497,186377342,imu_link,1.510669231414795,0.3564767539501191,9.600198745727539
1669803497.1924717,467,1669803497,191831626,imu_link,1.448929786682129,0.34909653663635254,9.65752696990967
1669803497.19681,468,1669803497,196169747,imu_link,1.4870749711990359,0.321511447429657,9.630494117736818
1669803497.201987,469,1669803497,201553667,imu_link,1.5253907442092898,0.34444743394851685,9.636754989624023
1669803497.2073565,470,1669803497,206933707,imu_link,1.5525311231613161,0.2916719913482666,9.709964752197266
1669803497.2114673,471,1669803497,211206679,imu_link,1.5915071964263916,0.276441901922226,9.671430587768555
1669803497.2166753,472,1669803497,216470567,imu_link,1.5986446142196657,0.31065365672111517,9.649096488952638
1669803497.2220278,473,1669803497,221808454,imu_link,1.5873519182205202,0.2754119038581848,9.65873908996582
1669803497.2270052,474,1669803497,226226340,imu_link,1.5940113067626953,0.2703197300434113,9.667337417602539
1669803497.2322261,475,1669803497,231740168,imu_link,1.6343494653701784,0.35856315493583685,9.674538612365724
1669803497.2365732,476,1669803497,236096283,imu_link,1.6643755435943604,0.37024465203285223,9.708670616149904
1669803497.2418237,477,1669803497,241492625,imu_link,1.6618313789367676,0.38019934296607977,9.724248886108398
1669803497.247083,478,1669803497,246823203,imu_link,1.6745166778564453,0.4189010262489319,9.687292098999023
1669803497.2515533,479,1669803497,251199227,imu_link,1.674400806427002,0.38434821367263794,9.707427978515625
1669803497.2568555,480,1669803497,256554690,imu_link,1.617613196372986,0.36193510890007025,9.72857666015625
1669803497.2621372,481,1669803497,261824065,imu_link,1.6171998977661133,0.3643346428871155,9.71706771850586
1669803497.2685575,482,1669803497,268254200,imu_link,1.6264563798904421,0.32072260975837713,9.698099136352539
1669803497.2719343,483,1669803497,271345742,imu_link,1.622092127799988,0.24651925265789035,9.715143203735352
1669803497.276861,484,1669803497,276590554,imu_link,1.6926870346069336,0.20248936116695407,9.694921493530273
1669803497.2836478,485,1669803497,283071312,imu_link,1.732405424118042,0.2202539294958115,9.662124633789062
1669803497.2870882,486,1669803497,286382581,imu_link,1.7124500274658203,0.18704007565975192,9.689307212829592
1669803497.2925775,487,1669803497,291907253,imu_link,1.6797777414321902,0.21018266677856445,9.67199230194092
1669803497.2969327,488,1669803497,296310503,imu_link,1.6925528049468994,0.256220281124115,9.64314365386963
1669803497.3024533,489,1669803497,301936101,imu_link,1.6637669801712038,0.2497842013835907,9.634922981262209
1669803497.3063784,490,1669803497,306131047,imu_link,1.646515130996704,0.2580364048480988,9.65200710296631
1669803497.311929,491,1669803497,311477142,imu_link,1.6712049245834353,0.33029374480247503,9.623346328735352
1669803497.3169684,492,1669803497,316784731,imu_link,1.6501404047012331,0.342990517616272,9.617456436157227
1669803497.321311,493,1669803497,321088514,imu_link,1.6027143001556396,0.33481818437576294,9.639990806579592
1669803497.3267958,494,1669803497,326449224,imu_link,1.6433725357055664,0.3473482131958008,9.634498596191406
1669803497.3321528,495,1669803497,331915023,imu_link,1.6726344823837282,0.36082455515861517,9.638190269470217
1669803497.3368762,496,1669803497,336243007,imu_link,1.5908902883529665,0.35915485024452215,9.650835037231445
1669803497.3425076,497,1669803497,341778982,imu_link,1.5889050960540771,0.3677557110786438,9.647963523864748
1669803497.347983,498,1669803497,346182622,imu_link,1.593083381652832,0.39760240912437445,9.643141746520998
1669803497.3523667,499,1669803497,351614815,imu_link,1.5797528028488161,0.3754128515720368,9.663811683654787
1669803497.3575673,500,1669803497,356961316,imu_link,1.587621092796326,0.3740778267383576,9.663294792175295
1669803497.3616838,501,1669803497,361246368,imu_link,1.6130499839782715,0.41632890701293945,9.62576198577881
1669803497.3673205,502,1669803497,366727966,imu_link,1.6170365810394287,0.3889534771442414,9.662174224853516
1669803497.372294,503,1669803497,371954059,imu_link,1.5967375040054324,0.36345672607421875,9.685052871704102
1669803497.3765278,504,1669803497,376173037,imu_link,1.6355944871902468,0.3583834171295166,9.642678260803224
1669803497.3817494,505,1669803497,381452706,imu_link,1.643417000770569,0.3366850912570954,9.652469635009766
1669803497.387007,506,1669803497,386756167,imu_link,1.657069444656372,0.30265036225318914,9.685470581054688
1669803497.3933177,507,1669803497,392984930,imu_link,1.6874370574951172,0.33379125595092773,9.663515090942383
1669803497.3964612,508,1669803497,396149494,imu_link,1.714749813079834,0.32601648569107056,9.662649154663086
1669803497.4021637,509,1669803497,401604793,imu_link,1.659924387931824,0.30442854762077337,9.67803478240967
1669803497.4087174,510,1669803497,408121941,imu_link,1.651703715324402,0.34329622983932495,9.67473030090332
1669803497.4117107,511,1669803497,411334145,imu_link,1.6757605075836182,0.3613719344139099,9.65325450897217
1669803497.4171288,512,1669803497,416835674,imu_link,1.6556762456893923,0.3627391159534455,9.701766967773438
1669803497.4213653,513,1669803497,421119771,imu_link,1.6779558658599854,0.37200623750686646,9.710755348205568
1669803497.4267712,514,1669803497,426455727,imu_link,1.7241185903549197,0.3921488821506501,9.684616088867188
1669803497.432265,515,1669803497,431953644,imu_link,1.7446545362472536,0.36784949898719793,9.713531494140625
1669803497.436417,516,1669803497,436213833,imu_link,1.734666109085083,0.35563543438911444,9.715050697326662
1669803497.441881,517,1669803497,441585952,imu_link,1.7855863571166992,0.3451087176799775,9.695632934570312
1669803497.4471004,518,1669803497,446859065,imu_link,1.762671947479248,0.3564718663692475,9.684947013854982
1669803497.45153,519,1669803497,451191715,imu_link,1.7547190189361572,0.31797724962234497,9.697232246398928
1669803497.4566224,520,1669803497,456384358,imu_link,1.7770432233810427,0.3557622134685517,9.67601203918457
1669803497.4621625,521,1669803497,461684556,imu_link,1.7675797939300537,0.37686982750892645,9.682302474975586
1669803497.466839,522,1669803497,466144258,imu_link,1.7482562065124512,0.37330490350723267,9.696540832519531
1669803497.472214,523,1669803497,471560429,imu_link,1.7471877336502077,0.38467830419540405,9.678821563720703
1669803497.478105,524,1669803497,476990355,imu_link,1.7668135166168213,0.42688307166099554,9.657139778137209
1669803497.481811,525,1669803497,481204562,imu_link,1.7505953311920166,0.38645654916763306,9.683377265930178
1669803497.4871018,526,1669803497,486551195,imu_link,1.7230924367904665,0.386199414730072,9.682537078857422
1669803497.4926832,527,1669803497,492054793,imu_link,1.6866375207901003,0.4172670245170593,9.638406753540039
1669803497.4968112,528,1669803497,496287600,imu_link,1.655669927597046,0.37447232007980347,9.661084175109865
1669803497.5020707,529,1669803497,501572485,imu_link,1.618718504905701,0.3079650402069092,9.641398429870607
1669803497.507217,530,1669803497,506843002,imu_link,1.657095551490784,0.3284834027290344,9.642626762390138
1669803497.5117736,531,1669803497,511220349,imu_link,1.6357755661010742,0.3260637223720551,9.65520763397217
1669803497.5168445,532,1669803497,516589156,imu_link,1.6237895488739014,0.30895620584487915,9.663907051086428
1669803497.5233057,533,1669803497,522980394,imu_link,1.6352314949035645,0.34933570027351385,9.639843940734865
1669803497.526689,534,1669803497,526283373,imu_link,1.655200481414795,0.3464062809944153,9.648135185241701
1669803497.5319176,535,1669803497,531623295,imu_link,1.608431339263916,0.34393188357353216,9.672340393066406
1669803497.5383012,536,1669803497,538028186,imu_link,1.5996347665786745,0.36493581533432007,9.623968124389648
1669803497.5414844,537,1669803497,541169854,imu_link,1.610990643501282,0.3687818646430969,9.637798309326172
1669803497.547013,538,1669803497,546699916,imu_link,1.5855627059936523,0.3521849513053894,9.658308982849123
1669803497.5534258,539,1669803497,553017798,imu_link,1.6154074668884277,0.33357533812522894,9.643781661987305
1669803497.5565372,540,1669803497,556185539,imu_link,1.6678599119186404,0.31767418980598455,9.628661155700685
1669803497.5622253,541,1669803497,561650135,imu_link,1.655644774436951,0.2949109673500061,9.683144569396974
1669803497.5687652,542,1669803497,568073885,imu_link,1.6388750076293945,0.3160413801670075,9.655895233154297
1669803497.5719895,543,1669803497,571298197,imu_link,1.6275042295455935,0.3541954457759858,9.642763137817383
1669803497.5769784,544,1669803497,576672787,imu_link,1.5985296964645388,0.356189489364624,9.638110160827638
1669803497.5833862,545,1669803497,583073343,imu_link,1.5940474271774294,0.3782593607902527,9.652031898498537
1669803497.5865405,546,1669803497,586287287,imu_link,1.645039200782776,0.4296247363090515,9.635460853576662
1669803497.5922134,547,1669803497,591656237,imu_link,1.6677001714706423,0.45200687646865845,9.652360916137695
1669803497.5973482,548,1669803497,596957093,imu_link,1.6603939533233643,0.4264844954013825,9.66366195678711
1669803497.602792,549,1669803497,601325732,imu_link,1.6744958162307741,0.41632178425788885,9.637466430664062
1669803497.6073449,550,1669803497,606708221,imu_link,1.6572018861770632,0.4171784520149231,9.617180824279787
1669803497.6137915,551,1669803497,613139016,imu_link,1.6124589443206787,0.382341355085373,9.634213447570803
1669803497.6169407,552,1669803497,616337835,imu_link,1.6321361064910889,0.33519649505615234,9.64991569519043
1669803497.622303,553,1669803497,621763041,imu_link,1.6848349571228027,0.32915639877319336,9.64510250091553
1669803497.6287823,554,1669803497,628123473,imu_link,1.7017245292663574,0.31370690464973455,9.68719482421875
1669803497.631646,555,1669803497,631244276,imu_link,1.7255951166152956,0.3177598416805268,9.723290443420412
1669803497.6370215,556,1669803497,636716830,imu_link,1.6933109760284424,0.37999394536018377,9.690365791320803
1669803497.643147,557,1669803497,642943400,imu_link,1.6323294639587402,0.4173823595046997,9.694021224975586
1669803497.6462224,558,1669803497,646021021,imu_link,1.5665795803070068,0.4291746318340302,9.713040351867678
1669803497.6515718,559,1669803497,651345707,imu_link,1.5921530723571777,0.44036126136779785,9.685815811157227
1669803497.6572025,560,1669803497,656738660,imu_link,1.637420654296875,0.4127576053142548,9.708839416503906
1669803497.6633363,561,1669803497,663034685,imu_link,1.6474720239639284,0.3531227707862854,9.732781410217287
1669803497.666392,562,1669803497,666150684,imu_link,1.6695390939712527,0.358985960483551,9.707489967346193
1669803497.671681,563,1669803497,671419905,imu_link,1.6598652601242068,0.3169448673725129,9.690789222717287
1669803497.677092,564,1669803497,676724906,imu_link,1.6489481925964355,0.2662565410137177,9.712898254394531
1669803497.6834576,565,1669803497,683126250,imu_link,1.665929198265076,0.284477174282074,9.692441940307617
1669803497.686487,566,1669803497,686294050,imu_link,1.6530584096908572,0.3418102264404297,9.658939361572266
1669803497.6919415,567,1669803497,691575827,imu_link,1.6277685165405273,0.3566613793373108,9.672482490539553
1669803497.6970844,568,1669803497,696820233,imu_link,1.6054623126983643,0.3828469514846802,9.65054225921631
1669803497.701287,569,1669803497,701062325,imu_link,1.6143230199813845,0.4758295118808747,9.612833976745607
1669803497.7066312,570,1669803497,706386561,imu_link,1.6084009408950808,0.4867869913578034,9.622212409973146
1669803497.7119277,571,1669803497,711680301,imu_link,1.6169652938842773,0.47076982259750366,9.648307800292969
1669803497.7183886,572,1669803497,718040536,imu_link,1.6286846399307253,0.48037195205688477,9.611836433410646
1669803497.7214878,573,1669803497,721216263,imu_link,1.6057239770889284,0.45604050159454346,9.598283767700195
1669803497.7274544,574,1669803497,726514804,imu_link,1.568389892578125,0.36059004068374634,9.622483253479006
1669803497.7321227,575,1669803497,731854954,imu_link,1.544827938079834,0.3455409705638886,9.60052013397217
1669803497.736384,576,1669803497,736114983,imu_link,1.5323771238327029,0.3515671789646149,9.585968017578125
1669803497.741657,577,1669803497,741366994,imu_link,1.5314159393310547,0.2665394842624665,9.60085964202881
1669803497.7469954,578,1669803497,746760699,imu_link,1.5065122842788699,0.28628087043762207,9.59881591796875
1669803497.7533772,579,1669803497,753022353,imu_link,1.5461272001266482,0.30872699618339544,9.59140396118164
1669803497.7564142,580,1669803497,756154804,imu_link,1.5057086944580078,0.3282500803470612,9.600725173950195
1669803497.7617126,581,1669803497,761501772,imu_link,1.5075445175170898,0.32015037536621094,9.59640121459961
1669803497.7668645,582,1669803497,766664691,imu_link,1.5021405220031738,0.38150012493133545,9.569782257080078
1669803497.7733428,583,1669803497,773064976,imu_link,1.5098686218261719,0.3557992279529572,9.581751823425295
1669803497.776465,584,1669803497,776212743,imu_link,1.5044764280319216,0.3340855836868286,9.628511428833008
1669803497.781907,585,1669803497,781664139,imu_link,1.523579239845276,0.35715311765670776,9.603960990905763
1669803497.788323,586,1669803497,788067538,imu_link,1.5407443046569824,0.34376776218414307,9.633355140686037
1669803497.7914164,587,1669803497,791131012,imu_link,1.5129669904708865,0.32012745738029486,9.647145271301271
1669803497.7966743,588,1669803497,796410766,imu_link,1.5286452770233154,0.3432506322860718,9.645380020141602
1669803497.8019738,589,1669803497,801681367,imu_link,1.5299854278564453,0.3319659531116486,9.639636039733888
1669803497.807149,590,1669803497,806878673,imu_link,1.5443120002746582,0.3022595942020417,9.671192169189453
1669803497.8113816,591,1669803497,811125297,imu_link,1.5486760139465332,0.3445530235767365,9.662036895751953
1669803497.8168817,592,1669803497,816392112,imu_link,1.5895210504531863,0.39207026362419134,9.656557083129883
1669803497.8218625,593,1669803497,821635179,imu_link,1.6056468486785889,0.3881455659866333,9.677797317504883
1669803497.828294,594,1669803497,827959313,imu_link,1.6347994804382324,0.395413488149643,9.661100387573242
1669803497.8312726,595,1669803497,831077722,imu_link,1.6870121955871582,0.38714414834976196,9.651983261108398
1669803497.8367517,596,1669803497,836516227,imu_link,1.664613962173462,0.3620661497116089,9.662172317504883
1669803497.8422294,597,1669803497,841929497,imu_link,1.6306718587875368,0.3335359394550324,9.694717407226562
1669803497.8468106,598,1669803497,846177423,imu_link,1.6376302242279053,0.3539442718029023,9.639994621276857
1669803497.8518877,599,1669803497,851507765,imu_link,1.6756391525268555,0.28086143732070923,9.656146049499513
1669803497.8571777,600,1669803497,856871684,imu_link,1.6639933586120605,0.23553822934627536,9.70630741119385
1669803497.8619845,601,1669803497,861333311,imu_link,1.7015351057052615,0.29002305865287786,9.679269790649414
1669803497.8673034,602,1669803497,866682407,imu_link,1.7125616073608398,0.2832188606262207,9.6706018447876
1669803497.8737545,603,1669803497,873069310,imu_link,1.6828930377960205,0.24901118874549866,9.696391105651857
1669803497.8767958,604,1669803497,876237401,imu_link,1.691964864730835,0.24604490399360657,9.662784576416016
1669803497.8822007,605,1669803497,881634483,imu_link,1.708285689353943,0.2576395273208618,9.667478561401367
1669803497.8874679,606,1669803497,886993452,imu_link,1.700308680534363,0.20607520639896396,9.693681716918945
1669803497.8917542,607,1669803497,891242933,imu_link,1.7033336162567139,0.22105202078819275,9.712360382080078
1669803497.8968918,608,1669803497,896563792,imu_link,1.7358107566833496,0.22366426885128024,9.651325225830078
1669803497.9020863,609,1669803497,901888916,imu_link,1.7256495952606201,0.1788478344678879,9.67680072784424
1669803497.906395,610,1669803497,906150195,imu_link,1.7149922847747803,0.17246046662330627,9.674945831298828
1669803497.9116838,611,1669803497,911453575,imu_link,1.7145210504531863,0.21273908019065857,9.634190559387209
1669803497.9175065,612,1669803497,916870303,imu_link,1.715374231338501,0.22150988876819613,9.664868354797365
1669803497.9219074,613,1669803497,921135184,imu_link,1.692662000656128,0.22383904457092285,9.679830551147461
1669803497.9270232,614,1669803497,926522415,imu_link,1.6961004734039307,0.2767455577850342,9.672129631042482
1669803497.9325619,615,1669803497,931828786,imu_link,1.7241978645324707,0.28931662440299993,9.671534538269045
1669803497.936722,616,1669803497,936150447,imu_link,1.7231534719467165,0.27994221448898315,9.710596084594727
1669803497.9423609,617,1669803497,941580858,imu_link,1.7109183073043825,0.3301552832126618,9.696271896362305
1669803497.9475615,618,1669803497,946918097,imu_link,1.7097692489624023,0.3209904432296753,9.660569190979006
1669803497.9518018,619,1669803497,951225571,imu_link,1.6312273740768435,0.2851568758487702,9.690217971801758
1669803497.957195,620,1669803497,956620779,imu_link,1.6081091165542605,0.2958986163139343,9.674274444580078
1669803497.9635243,621,1669803497,963068596,imu_link,1.6274882555007937,0.3118164241313935,9.667703628540039
1669803497.966772,622,1669803497,966306644,imu_link,1.6235086917877197,0.2797707617282868,9.6897668838501
1669803497.9722064,623,1669803497,971716893,imu_link,1.6409313678741455,0.28226423263549805,9.686790466308594
1669803497.978863,624,1669803497,978158942,imu_link,1.7089638710021973,0.315165638923645,9.660333633422852
1669803497.9818268,625,1669803497,981378360,imu_link,1.7078971862792969,0.308549165725708,9.671104431152344
1669803497.9870965,626,1669803497,986782120,imu_link,1.7007434368133545,0.29252985119819647,9.687217712402344
1669803497.9934244,627,1669803497,993076067,imu_link,1.7035752534866335,0.3175361156463623,9.635915756225586
1669803497.9965217,628,1669803497,996263605,imu_link,1.7076001167297363,0.3119543790817261,9.652433395385742
1669803498.0017653,629,1669803498,1541168,imu_link,1.6920428276062012,0.23486928641796115,9.680561065673828
1669803498.0071607,630,1669803498,6776994,imu_link,1.7206810712814333,0.23827822506427768,9.652860641479492
1669803498.0140698,631,1669803498,13219883,imu_link,1.7689207792282107,0.24472354352474215,9.650227546691896
1669803498.0170746,632,1669803498,16462567,imu_link,1.737776756286621,0.2065536379814148,9.713184356689453
1669803498.0224066,633,1669803498,21844155,imu_link,1.7356159687042236,0.20092371106147766,9.706515312194826
1669803498.0263505,634,1669803498,26098668,imu_link,1.7128249406814577,0.22447973489761353,9.682663917541506
1669803498.031701,635,1669803498,31410419,imu_link,1.6501280069351199,0.19603495299816134,9.718205451965334
1669803498.0371282,636,1669803498,36725889,imu_link,1.6295367479324343,0.1792079508304596,9.726470947265625
1669803498.0435615,637,1669803498,43107864,imu_link,1.6526169776916504,0.20806039869785312,9.694443702697756
1669803498.0465894,638,1669803498,46219875,imu_link,1.6624351739883425,0.17457984387874606,9.70639419555664
1669803498.051704,639,1669803498,51499570,imu_link,1.6417582035064697,0.15053279697895053,9.719669342041016
1669803498.0569887,640,1669803498,56747563,imu_link,1.6877856254577637,0.16925394535064697,9.659770965576172
1669803498.0635374,641,1669803498,63251869,imu_link,1.6706647872924805,0.16770759224891663,9.643101692199709
1669803498.0665238,642,1669803498,66361760,imu_link,1.6583803892135622,0.1643491238355637,9.651287078857422
1669803498.0719569,643,1669803498,71728832,imu_link,1.6455782651901247,0.21122233569622043,9.627608299255373
1669803498.0782049,644,1669803498,78003559,imu_link,1.6614867448806765,0.24438805878162387,9.592069625854492
1669803498.0812736,645,1669803498,81103568,imu_link,1.648067355155945,0.24461115896701816,9.623036384582521
1669803498.0865912,646,1669803498,86362564,imu_link,1.6625968217849734,0.28103989362716675,9.616732597351076
1669803498.0917492,647,1669803498,91606662,imu_link,1.640223503112793,0.3329678177833557,9.630246162414553
1669803498.0970755,648,1669803498,96864430,imu_link,1.6445096731185915,0.31139570474624634,9.629513740539553
1669803498.1036212,649,1669803498,103153394,imu_link,1.63741135597229,0.2934250831604004,9.623315811157227
1669803498.106499,650,1669803498,106277893,imu_link,1.6564147472381592,0.2863352000713349,9.612439155578615
1669803498.1118562,651,1669803498,111562689,imu_link,1.6529200077056885,0.24208645522594455,9.632382392883303
1669803498.117033,652,1669803498,116849669,imu_link,1.6275651454925537,0.21429203450679782,9.638258934020998
1669803498.121953,653,1669803498,121228382,imu_link,1.645028829574585,0.22283230721950534,9.641526222229006
1669803498.1272523,654,1669803498,126618092,imu_link,1.6494452953338623,0.18152546882629395,9.631206512451172
1669803498.1338086,655,1669803498,133087423,imu_link,1.6469110250473025,0.18537276983261108,9.658532142639162
1669803498.1369803,656,1669803498,136277047,imu_link,1.625733256340027,0.23168829083442688,9.634181022644045
1669803498.1424026,657,1669803498,141681712,imu_link,1.625251054763794,0.29625844955444336,9.619787216186523
1669803498.1485553,658,1669803498,148129814,imu_link,1.5950213670730593,0.31461879611015325,9.650382041931154
1669803498.1518624,659,1669803498,151334277,imu_link,1.595163941383362,0.32684567570686346,9.60867214202881
1669803498.1567388,660,1669803498,156558775,imu_link,1.612195134162903,0.38380798697471624,9.626776695251467
1669803498.162064,661,1669803498,161813316,imu_link,1.5880956649780273,0.36105200648307806,9.651114463806154
1669803498.168642,662,1669803498,168098995,imu_link,1.5887008905410769,0.3427683115005493,9.656395912170412
1669803498.1714888,663,1669803498,171187937,imu_link,1.6149723529815674,0.35184532403945923,9.642335891723633
1669803498.176911,664,1669803498,176507489,imu_link,1.5687657594680788,0.3095393776893616,9.670886993408203
1669803498.181951,665,1669803498,181751792,imu_link,1.5418922901153564,0.28799277544021606,9.688501358032227
1669803498.1883538,666,1669803498,187988469,imu_link,1.538698434829712,0.3191323578357697,9.653992652893068
1669803498.1913786,667,1669803498,191150730,imu_link,1.516299605369568,0.31386360526084905,9.667524337768555
1669803498.196734,668,1669803498,196426230,imu_link,1.5219652652740479,0.3271547555923462,9.685231208801271
1669803498.2022285,669,1669803498,201767848,imu_link,1.5463017225265505,0.3674087822437287,9.665650367736818
1669803498.2083473,670,1669803498,208072814,imu_link,1.5974838733673096,0.37984663248062134,9.677619934082031
1669803498.2113807,671,1669803498,211188340,imu_link,1.6083433628082275,0.374943882226944,9.697704315185547
1669803498.2166505,672,1669803498,216433344,imu_link,1.6386396884918213,0.39388075470924383,9.692271232604982
1669803498.2219825,673,1669803498,221672333,imu_link,1.662163853645325,0.40376871824264526,9.640377044677734
1669803498.228406,674,1669803498,227947738,imu_link,1.632416009902954,0.36678740382194525,9.661889076232912
1669803498.2313955,675,1669803498,231100835,imu_link,1.6264643669128418,0.3469476997852326,9.654733657836914
1669803498.2367077,676,1669803498,236463650,imu_link,1.6445802450180056,0.3566234409809113,9.609564781188967
1669803498.2421193,677,1669803498,241778689,imu_link,1.6297056674957275,0.3160961866378784,9.654012680053711
1669803498.2485871,678,1669803498,247212715,imu_link,1.652820944786072,0.27445283532142645,9.659890174865724
1669803498.2521806,679,1669803498,251556997,imu_link,1.669020175933838,0.3100074231624604,9.634149551391602
1669803498.2586682,680,1669803498,258074690,imu_link,1.6769243478775027,0.2788658142089844,9.613021850585938
1669803498.2619078,681,1669803498,261332683,imu_link,1.6494102478027344,0.26191627979278564,9.64770030975342
1669803498.267514,682,1669803498,266869177,imu_link,1.641299605369568,0.29877993464469915,9.63404941558838
1669803498.2719908,683,1669803498,271269999,imu_link,1.629017472267151,0.3105666935443879,9.600552558898928
1669803498.2772887,684,1669803498,276652582,imu_link,1.5955407619476318,0.2883711159229279,9.629006385803224
1669803498.2835042,685,1669803498,283072577,imu_link,1.6242783069610596,0.27702531218528753,9.620484352111818
1669803498.2864342,686,1669803498,286199758,imu_link,1.6472522020339968,0.3115609288215637,9.600954055786133
1669803498.2918217,687,1669803498,291554560,imu_link,1.6248412132263184,0.2739748060703278,9.645406723022461
1669803498.2971969,688,1669803498,296867609,imu_link,1.5979024171829226,0.30232992768287664,9.629963874816896
1669803498.3033335,689,1669803498,303122091,imu_link,1.6153521537780762,0.27168524265289307,9.622907638549805
1669803498.3064678,690,1669803498,306236573,imu_link,1.6016420125961306,0.2614338099956513,9.626816749572756
1669803498.3116894,691,1669803498,311505087,imu_link,1.5664311647415163,0.2724405229091645,9.63850212097168
1669803498.3169763,692,1669803498,316718892,imu_link,1.5987681150436404,0.30509003996849066,9.637343406677248
1669803498.3232484,693,1669803498,323031606,imu_link,1.60921847820282,0.333304226398468,9.64736557006836
1669803498.3265197,694,1669803498,326212384,imu_link,1.619213581085205,0.2824186086654663,9.683753967285156
1669803498.331874,695,1669803498,331551977,imu_link,1.661698579788208,0.3462737798690796,9.656914710998537
1669803498.3369405,696,1669803498,336732046,imu_link,1.662903428077698,0.37559592723846436,9.663864135742188
1669803498.343216,697,1669803498,343001403,imu_link,1.610788702964783,0.3717711567878723,9.694571495056154
1669803498.3484182,698,1669803498,348203651,imu_link,1.5914624929428103,0.3950741589069367,9.660380363464357
1669803498.3516119,699,1669803498,351324248,imu_link,1.5997594594955447,0.41370028257369995,9.640192031860352
1669803498.3569198,700,1669803498,356644925,imu_link,1.6046020984649658,0.3819429874420166,9.695775985717773
1669803498.3633761,701,1669803498,363017448,imu_link,1.659619212150574,0.3522216975688935,9.684956550598146
1669803498.3664353,702,1669803498,366220138,imu_link,1.7025524377822878,0.35571631789207464,9.655023574829102
1669803498.37174,703,1669803498,371445238,imu_link,1.6753855943679812,0.33154362440109253,9.663801193237305
1669803498.3772936,704,1669803498,376815038,imu_link,1.6799138784408572,0.2986907362937927,9.662585258483888
1669803498.381946,705,1669803498,381187985,imu_link,1.7051451206207275,0.2903621792793274,9.632749557495117
1669803498.3872757,706,1669803498,386676687,imu_link,1.6908298730850222,0.27881503105163574,9.62514400482178
1669803498.393986,707,1669803498,393205419,imu_link,1.6573073863983154,0.2950260043144226,9.657516479492188
1669803498.3971133,708,1669803498,396486827,imu_link,1.706475615501404,0.33954414725303655,9.637845993041992
1669803498.4027522,709,1669803498,401939521,imu_link,1.7204040288925173,0.37628737092018133,9.64640998840332
1669803498.4066226,710,1669803498,406210412,imu_link,1.7387940883636475,0.3434738516807556,9.6666955947876
1669803498.4122074,711,1669803498,411593257,imu_link,1.7120249271392822,0.3949653804302216,9.671397209167482
1669803498.4172366,712,1669803498,416882020,imu_link,1.6902761459350586,0.4022637307643891,9.643694877624513
1669803498.4236255,713,1669803498,423185879,imu_link,1.6067494153976443,0.38505217432975775,9.675508499145508
1669803498.4266398,714,1669803498,426402157,imu_link,1.5631258487701416,0.35597628355026245,9.681709289550781
1669803498.4318745,715,1669803498,431699847,imu_link,1.6091969013214111,0.3355075716972351,9.678869247436523
1669803498.438227,716,1669803498,438038693,imu_link,1.599992275238037,0.2798061072826386,9.680593490600586
1669803498.443472,717,1669803498,443273380,imu_link,1.6127575635910036,0.24378874897956848,9.68964958190918
1669803498.4473183,718,1669803498,446622183,imu_link,1.6352789402008057,0.271090716123581,9.67129135131836
1669803498.4537523,719,1669803498,453205321,imu_link,1.6697814464569092,0.2442802041769028,9.678565979003906
1669803498.4568846,720,1669803498,456370348,imu_link,1.666987657546997,0.23098129034042358,9.666823387145998
1669803498.4624813,721,1669803498,461735569,imu_link,1.6562808752059939,0.28293418884277344,9.641455650329592
1669803498.4688613,722,1669803498,468278878,imu_link,1.686289191246033,0.27526921033859253,9.610157966613771
1669803498.4720075,723,1669803498,471492822,imu_link,1.653621554374695,0.2752950191497803,9.654185295104982
1669803498.477375,724,1669803498,476918341,imu_link,1.665886998176575,0.2993889153003693,9.623675346374513
1669803498.482027,725,1669803498,481352150,imu_link,1.704289436340332,0.2774706482887268,9.596622467041016
1669803498.4876022,726,1669803498,486950905,imu_link,1.6770335435867312,0.2525075972080231,9.616196632385256
1669803498.4918313,727,1669803498,491248468,imu_link,1.7153674364089968,0.23536726832389832,9.614324569702148
1669803498.4973822,728,1669803498,496790556,imu_link,1.7248641252517702,0.2266889661550522,9.593913078308107
1669803498.5039806,729,1669803498,503364867,imu_link,1.7016032934188845,0.22351576387882235,9.624230384826662
1669803498.5072381,730,1669803498,506603713,imu_link,1.666321635246277,0.19746799767017367,9.601655960083008
1669803498.5126688,731,1669803498,512010063,imu_link,1.6858303546905518,0.25371265411376953,9.571338653564453
1669803498.5180314,732,1669803498,516500384,imu_link,1.674847483634949,0.29203823208808904,9.600399017333984
1669803498.5227442,733,1669803498,521963091,imu_link,1.6258468627929688,0.3118339776992798,9.629404067993164
1669803498.526721,734,1669803498,526254421,imu_link,1.6256278753280642,0.34864780306816107,9.611393928527834
1669803498.5320914,735,1669803498,531567116,imu_link,1.6313908100128174,0.3448903858661652,9.601792335510256
1669803498.5372593,736,1669803498,536878306,imu_link,1.6237756013870241,0.3236462473869324,9.624102592468263
1669803498.5434537,737,1669803498,543187488,imu_link,1.6685824394226074,0.31969878077507025,9.64523220062256
1669803498.5465298,738,1669803498,546291239,imu_link,1.694475293159485,0.33008417487144476,9.630439758300781
1669803498.551777,739,1669803498,551530861,imu_link,1.657959818840027,0.2940186560153962,9.655584335327148
1669803498.5577517,740,1669803498,557010422,imu_link,1.687810778617859,0.27749091386795044,9.676526069641115
1669803498.5617857,741,1669803498,561283797,imu_link,1.6747441291809082,0.2962659299373627,9.665088653564453
1669803498.567222,742,1669803498,566755492,imu_link,1.622145652770996,0.3130196034908295,9.679966926574709
1669803498.5736003,743,1669803498,573154345,imu_link,1.5865124464035036,0.3304479718208313,9.697883605957031
1669803498.5765486,744,1669803498,576268428,imu_link,1.6134606599807741,0.39444416761398315,9.664152145385742
1669803498.581957,745,1669803498,581607267,imu_link,1.61989963054657,0.37078878283500677,9.67514419555664
1669803498.5872512,746,1669803498,586949994,imu_link,1.6476005315780642,0.3813430070877075,9.681232452392578
1669803498.5915165,747,1669803498,591240344,imu_link,1.6809566020965576,0.41344892978668213,9.65492343902588
1669803498.5970678,748,1669803498,596719890,imu_link,1.7063376903533936,0.4205384850502014,9.652892112731935
1669803498.6035435,749,1669803498,603183710,imu_link,1.6755309104919434,0.38630309700965887,9.657844543457031
1669803498.6066403,750,1669803498,606327884,imu_link,1.723072648048401,0.3726925253868103,9.647067070007326
1669803498.6119156,751,1669803498,611663931,imu_link,1.6986178159713747,0.4006111919879914,9.616273880004883
1669803498.6184442,752,1669803498,618144932,imu_link,1.6859490871429443,0.3638187944889069,9.627366065979006
1669803498.621544,753,1669803498,621285528,imu_link,1.6860229969024658,0.37059617042541504,9.612497329711914
1669803498.6270123,754,1669803498,626684928,imu_link,1.7058207988739014,0.3807994425296784,9.581714630126953
1669803498.6324239,755,1669803498,632107110,imu_link,1.7160419225692751,0.37255349755287176,9.610657691955568
1669803498.6378798,756,1669803498,636462416,imu_link,1.7275323867797852,0.3889040648937226,9.624765396118164
1669803498.6425648,757,1669803498,641897519,imu_link,1.761775612831116,0.4293873012065888,9.603950500488281
1669803498.6470573,758,1669803498,646340126,imu_link,1.7349292039871218,0.41801923513412476,9.606495857238771
1669803498.6525404,759,1669803498,651713563,imu_link,1.6961783170700075,0.39617955684661865,9.637619972229006
1669803498.6590655,760,1669803498,658222093,imu_link,1.673839807510376,0.407625824213028,9.601540565490724
1669803498.6621788,761,1669803498,661455515,imu_link,1.6638411283493044,0.39117252826690674,9.615483283996584
1669803498.6675088,762,1669803498,666892835,imu_link,1.6247662305831911,0.3418846130371094,9.661018371582031
1669803498.671669,763,1669803498,671227944,imu_link,1.629178762435913,0.34034582972526556,9.619751930236818
1669803498.6768098,764,1669803498,676476206,imu_link,1.6536610126495361,0.32884448766708374,9.617935180664062
1669803498.6821427,765,1669803498,681829927,imu_link,1.6447196006774902,0.27398496866226196,9.646515846252443
1669803498.6883726,766,1669803498,688132205,imu_link,1.6462996006011963,0.29207849502563477,9.651791572570803
1669803498.6914644,767,1669803498,691247457,imu_link,1.6769338846206667,0.3111833333969116,9.63484001159668
1669803498.6970506,768,1669803498,696838002,imu_link,1.6733393669128418,0.2887509167194367,9.648272514343263
1669803498.7034237,769,1669803498,703189013,imu_link,1.68297016620636,0.29231825470924383,9.634798049926758
1669803498.7066426,770,1669803498,706397759,imu_link,1.728032946586609,0.31186887621879583,9.608689308166506
1669803498.7126381,771,1669803498,711942954,imu_link,1.7470118999481201,0.30414745211601263,9.646691322326662
1669803498.7191243,772,1669803498,718422372,imu_link,1.7354674339294434,0.274574875831604,9.672422409057617
1669803498.7221994,773,1669803498,721654822,imu_link,1.7469213008880615,0.3162989020347595,9.625373840332031
1669803498.7286963,774,1669803498,728084410,imu_link,1.7052812576293945,0.30169713497161865,9.617193222045898
1669803498.731768,775,1669803498,731239152,imu_link,1.6815719604492188,0.2788655757904053,9.64703369140625
1669803498.7372673,776,1669803498,736733431,imu_link,1.690004825592041,0.29624491930007935,9.636677742004396
1669803498.7441268,777,1669803498,743353666,imu_link,1.7228804826736452,0.2967200577259064,9.62837314605713
1669803498.7472916,778,1669803498,746608495,imu_link,1.716749906539917,0.30019876360893255,9.661229133605959
1669803498.752568,779,1669803498,751956592,imu_link,1.7183480262756348,0.31418389081954956,9.643479347229006
1669803498.756762,780,1669803498,756267866,imu_link,1.7438762187957764,0.3123051226139069,9.648613929748537
1669803498.7622464,781,1669803498,761745777,imu_link,1.7183393239974978,0.3099347054958344,9.655941963195803
1669803498.7687886,782,1669803498,768221787,imu_link,1.750319838523865,0.2873002290725708,9.651951789855959
1669803498.7716851,783,1669803498,771435782,imu_link,1.782731890678406,0.30338579416275024,9.645316123962404
1669803498.777193,784,1669803498,776801039,imu_link,1.7550083398818972,0.2771643400192261,9.662446022033693
1669803498.7838092,785,1669803498,783298419,imu_link,1.735075354576111,0.2872014045715332,9.690141677856445
1669803498.7868435,786,1669803498,786514394,imu_link,1.8007338047027588,0.3064897060394287,9.685983657836914
1669803498.7922087,787,1669803498,791817328,imu_link,1.8476033210754395,0.26973858475685125,9.697005271911623
1669803498.7986598,788,1669803498,798222123,imu_link,1.7997987270355225,0.25734218955039984,9.725049018859865
1669803498.8016741,789,1669803498,801379545,imu_link,1.7437312602996826,0.34442380070686346,9.698973655700685
1669803498.8073034,790,1669803498,806764028,imu_link,1.7443010807037354,0.30359917879104614,9.686032295227053
1669803498.8133888,791,1669803498,813146275,imu_link,1.7397056818008425,0.2721343934535981,9.70765781402588
1669803498.8167422,792,1669803498,816379178,imu_link,1.7667025327682497,0.27396890521049505,9.70390033721924
1669803498.8218477,793,1669803498,821629134,imu_link,1.7788592576980593,0.3000928461551667,9.682743072509766
1669803498.828254,794,1669803498,827913038,imu_link,1.7840059995651247,0.22640612721443176,9.700950622558594
1669803498.8334384,795,1669803498,833211998,imu_link,1.8046942949295046,0.21804909408092502,9.67808723449707
1669803498.836504,796,1669803498,836286564,imu_link,1.8343875408172607,0.23933562636375427,9.645334243774414
1669803498.8419375,797,1669803498,841690485,imu_link,1.8249064683914187,0.2396121621131897,9.660017967224123
1669803498.8483882,798,1669803498,848094573,imu_link,1.783365249633789,0.24610467255115512,9.654962539672852
1669803498.8514786,799,1669803498,851315133,imu_link,1.8016921281814577,0.2938044369220734,9.608119010925295
1669803498.8570008,800,1669803498,856664502,imu_link,1.7691651582717898,0.2929849326610566,9.636078834533693
1669803498.8632436,801,1669803498,863000856,imu_link,1.7507053613662722,0.2830818593502045,9.622284889221193
1669803498.8664906,802,1669803498,866209197,imu_link,1.7612919807434082,0.3034056723117829,9.60233783721924
1669803498.8719969,803,1669803498,871558078,imu_link,1.747336030006409,0.31726163625717163,9.603116989135742
1669803498.8771944,804,1669803498,876855915,imu_link,1.728544354438782,0.26717960834503174,9.632931709289553
1669803498.8835237,805,1669803498,883271845,imu_link,1.6985448598861697,0.25471743941307073,9.612964630126953
1669803498.886633,806,1669803498,886362505,imu_link,1.6989645957946777,0.25184929370880127,9.618481636047365
1669803498.891955,807,1669803498,891734791,imu_link,1.6437387466430664,0.2214977741241455,9.603910446166992
1669803498.8987765,808,1669803498,898072214,imu_link,1.6134884357452393,0.24337339401245117,9.608121871948242
