Time,header.seq,header.stamp.secs,header.stamp.nsecs,header.frame_id,vector.x,vector.y,vector.z
1669803496.146881,258,1669803496,146093128,imu_link,0.0022590442094951872,-0.007393231615424156,0.014120323583483696
1669803496.1516473,259,1669803496,151411847,imu_link,0.0018768298905342817,-0.0058621284551918515,0.008586036041378975
1669803496.1570292,260,1669803496,156716359,imu_link,0.004171481356024742,-0.005833829753100872,0.01837761886417866
1669803496.1616814,261,1669803496,161043360,imu_link,0.0021047848276793957,-0.002374487696215511,0.0240422822535038
1669803496.1669936,262,1669803496,166476165,imu_link,0.003525628941133619,-0.006879896856844425,0.01575125753879547
1669803496.172468,263,1669803496,172001439,imu_link,0.003887694096192718,-0.003239610232412815,0.026056168600916866
1669803496.1766875,264,1669803496,176299837,imu_link,0.006448508705943824,-0.007782053668051959,0.02281966060400009
1669803496.1826081,265,1669803496,181736780,imu_link,0.006329265888780356,-0.005408361554145813,0.017771134153008464
1669803496.1863947,266,1669803496,186020409,imu_link,0.007463991176337005,-0.010601431131362915,0.023925304412841797
1669803496.1915839,267,1669803496,191282002,imu_link,0.00899291876703501,-0.007887149229645729,0.028770411387085918
1669803496.1969738,268,1669803496,196698000,imu_link,0.0048674289137125015,-0.008495289832353592,0.020895848050713543
1669803496.2013073,269,1669803496,201033321,imu_link,0.0015742797404527664,-0.007189000491052867,0.023350145667791367
1669803496.2067244,270,1669803496,206407701,imu_link,0.0017590998904779556,-0.004366782493889332,0.030246376991271973
1669803496.212518,271,1669803496,211825234,imu_link,-0.001585453050211072,-0.0049143810756504544,0.027336932718753815
1669803496.216941,272,1669803496,216233813,imu_link,0.0027409978210926056,-0.007487109862267971,0.025936214253306392
1669803496.2222426,273,1669803496,221738144,imu_link,0.002890894189476967,-0.006568470504134894,0.03263352811336517
1669803496.2266035,274,1669803496,226090497,imu_link,0.005244359839707614,-0.010829480364918709,0.027254216372966766
1669803496.2317388,275,1669803496,231374595,imu_link,0.0028281861450523142,-0.01338864304125309,0.026579232886433605
1669803496.2372544,276,1669803496,236808300,imu_link,-0.001867970800958574,-0.012815785594284536,0.03293750435113907
1669803496.2414496,277,1669803496,241019422,imu_link,0.001733797951601446,-0.012528296560049057,0.0320657603442669
1669803496.2467816,278,1669803496,246454486,imu_link,0.001750211464241147,-0.015272228978574278,0.030831979587674144
1669803496.2521846,279,1669803496,251890002,imu_link,-0.0004261750436853618,-0.01605084165930748,0.03195551410317422
1669803496.2563872,280,1669803496,256134078,imu_link,0.0033408014569431548,-0.014756553806364538,0.03297630697488785
1669803496.2617316,281,1669803496,261482224,imu_link,-0.0003107611846644432,-0.016794510185718536,0.030729087069630626
1669803496.2672107,282,1669803496,266898144,imu_link,-0.0031382197048515086,-0.01702994853258133,0.03448344022035599
1669803496.2714381,283,1669803496,271193922,imu_link,-0.0012219223426654937,-0.019827544689178467,0.03792193159461022
1669803496.2768517,284,1669803496,276588181,imu_link,-0.0010400038445368411,-0.021260237321257595,0.0309579037129879
1669803496.2821877,285,1669803496,281952156,imu_link,-0.00045535041135735815,-0.018543019890785217,0.03019942902028561
1669803496.2865324,286,1669803496,286213438,imu_link,-0.00306890532374382,-0.01735384948551655,0.0335105024278164
1669803496.2917836,287,1669803496,291484795,imu_link,-0.0015512125100940466,-0.01461364794522524,0.03608090430498123
1669803496.297116,288,1669803496,296865167,imu_link,-0.0013986502308398485,-0.01421201042830944,0.025900429114699367
1669803496.301357,289,1669803496,301113834,imu_link,-0.0010229786857962608,-0.013218781910836698,0.03480540215969086
1669803496.3067935,290,1669803496,306505172,imu_link,-0.0008292928687296809,-0.011642998084425926,0.029847029596567154
1669803496.3121123,291,1669803496,311773080,imu_link,0.000508091296069324,-0.0035979158710688357,0.02411678433418274
1669803496.3166006,292,1669803496,316078399,imu_link,-0.0013514873571693897,-0.004874813370406628,0.031038390472531322
1669803496.322442,293,1669803496,321692165,imu_link,0.0009723781840875745,-0.006106479559093715,0.02567470073699951
1669803496.3267562,294,1669803496,326142490,imu_link,-0.0005469403695315123,-0.0034421773161739115,0.01537799555808306
1669803496.3321178,295,1669803496,331517135,imu_link,-0.0014878748916089535,-0.0017441572854295375,0.01744180917739868
1669803496.3374274,296,1669803496,337023944,imu_link,0.001530256704427302,0.0012188710970804097,0.019727658480405807
1669803496.3416176,297,1669803496,341289993,imu_link,-0.0008561123977415265,0.002016091253608465,0.020182138308882717
1669803496.3469367,298,1669803496,346623698,imu_link,-0.004004676826298237,0.0008530637132935227,0.013396897353231909
1669803496.3522987,299,1669803496,351912848,imu_link,-0.0035308247897773985,0.0027209650725126266,0.007642806041985751
1669803496.3563685,300,1669803496,356099791,imu_link,-0.0018581947078928354,0.0037215396296232943,0.010751938447356224
1669803496.3616772,301,1669803496,361393292,imu_link,-0.0020041828975081444,0.00623389007523656,0.008402034640312195
1669803496.3676293,302,1669803496,366979586,imu_link,-0.001296391710639,0.006517043802887202,0.013013175688683988
1669803496.371795,303,1669803496,371356000,imu_link,-0.00031665648566558957,0.0017702447948977353,0.0036373790353536606
1669803496.3773284,304,1669803496,376832223,imu_link,-0.004771368112415076,0.003009272506460548,0.0019222400151193142
1669803496.3813791,305,1669803496,381105951,imu_link,-0.004898757208138705,0.0012070098891854286,0.003963704686611892
1669803496.3869638,306,1669803496,386492492,imu_link,-0.004223720170557499,0.0022500639315694575,0.004479308146983386
1669803496.3919673,307,1669803496,391782080,imu_link,-0.0029675555415451527,0.0017501419642940166,0.0031896033324301243
1669803496.3963342,308,1669803496,396052888,imu_link,-0.004847357049584389,0.004952410236001015,0.007148074451833964
1669803496.4016585,309,1669803496,401372287,imu_link,-0.006437281146645546,0.002598017686977983,0.006150476634502411
1669803496.407009,310,1669803496,406702674,imu_link,-0.011574475094676018,-0.00034875018172897404,-0.00035614412627182906
1669803496.4111054,311,1669803496,410879083,imu_link,-0.0074058794416487226,0.001440941821783781,0.0013098058989271524
1669803496.4170735,312,1669803496,416349831,imu_link,-0.010193083435297012,-0.0026896605268120766,0.010615642182528974
1669803496.4223309,313,1669803496,421887242,imu_link,-0.00953000970184803,-0.00042023273999802774,0.010111954063177109
1669803496.4265652,314,1669803496,426245402,imu_link,-0.01051206234842539,-0.005452314391732216,0.004218451678752899
1669803496.4319952,315,1669803496,431668114,imu_link,-0.012602704577147962,-0.007340267300605774,0.013088419102132322
1669803496.4364893,316,1669803496,435992387,imu_link,-0.017679497599601746,-0.003366949502378702,0.012866382487118246
1669803496.4415627,317,1669803496,441354027,imu_link,-0.01695007272064686,-0.0011600549332797527,0.012622025795280935
1669803496.446928,318,1669803496,446676436,imu_link,-0.017259305343031887,-0.0038437340408563614,0.012410392984747887
1669803496.4521468,319,1669803496,451906407,imu_link,-0.01839697174727917,-0.007284412160515785,0.012610870413482191
1669803496.4564054,320,1669803496,456179092,imu_link,-0.01871214061975479,-0.004947165958583355,0.006727864500135184
1669803496.4618526,321,1669803496,461408063,imu_link,-0.018011029809713364,0.0005528419860638679,0.008422894403338432
1669803496.466962,322,1669803496,466662087,imu_link,-0.020955527201294902,0.004152178764343262,0.010404709726572037
1669803496.4732711,323,1669803496,472980913,imu_link,-0.018796339631080627,5.585688268183731e-05,0.008071180433034897
1669803496.476425,324,1669803496,476111910,imu_link,-0.01864805445075035,0.004671546630561352,0.006340436171740294
1669803496.4822495,325,1669803496,481593766,imu_link,-0.019329819828271866,0.007504175882786513,0.01001131534576416
1669803496.4866095,326,1669803496,486033641,imu_link,-0.01931636407971382,0.005789132323116065,0.007406624499708415
1669803496.491906,327,1669803496,491485518,imu_link,-0.021752713248133663,0.007002782076597214,0.00652152905240655
1669803496.4976864,328,1669803496,496855398,imu_link,-0.02210810035467148,0.008492210879921913,0.01161842327564955
1669803496.501573,329,1669803496,501073524,imu_link,-0.022276509553194046,0.010381593368947508,0.007015462964773178
1669803496.5065646,330,1669803496,506346131,imu_link,-0.02162607572972775,0.010976916179060936,0.0073686083778738976
1669803496.5120018,331,1669803496,511613156,imu_link,-0.023583289235830307,0.012627215124666693,0.010623153299093246
1669803496.5172248,332,1669803496,516916029,imu_link,-0.024595871567726135,0.012485681101679802,0.012901403941214086
1669803496.521438,333,1669803496,521233968,imu_link,-0.02430756762623787,0.012599571608006956,0.004158219322562218
1669803496.5269818,334,1669803496,526537621,imu_link,-0.024555632844567302,0.01100822165608406,8.195835107471794e-05
1669803496.5321012,335,1669803496,531865176,imu_link,-0.02194197662174702,0.012576572597026825,0.003253614762797952
1669803496.5370276,336,1669803496,536194731,imu_link,-0.022105133160948757,0.009812404401600363,-0.00563413742929697
1669803496.5422091,337,1669803496,541603524,imu_link,-0.021082894876599315,0.011830074712634087,-0.0070951669476926335
1669803496.5487242,338,1669803496,548165363,imu_link,-0.020413128659129146,0.011271188035607338,-0.002007225062698126
1669803496.5518513,339,1669803496,551360072,imu_link,-0.015407029539346695,0.011825648136436941,-0.010795842856168747
1669803496.5569541,340,1669803496,556671384,imu_link,-0.02205300517380238,0.012740413658320906,-0.011540243402123451
1669803496.5611362,341,1669803496,560923288,imu_link,-0.019679205492138866,0.011089464649558067,-0.003510745475068689
1669803496.5665405,342,1669803496,566274541,imu_link,-0.014877357520163061,0.00796234980225563,-0.012438012287020683
1669803496.5719764,343,1669803496,571692745,imu_link,-0.01588763110339642,0.006865682080388069,-0.019904231652617458
1669803496.576185,344,1669803496,575891720,imu_link,-0.01641065999865532,0.008781952783465385,-0.026298331096768383
1669803496.5816367,345,1669803496,581228145,imu_link,-0.01721538417041302,0.005126652307808399,-0.022765217348933223
1669803496.5867302,346,1669803496,586484874,imu_link,-0.018329109996557236,0.00418565096333623,-0.03166948631405831
1669803496.5920534,347,1669803496,591823336,imu_link,-0.013551908545196058,0.0030830311588943005,-0.028160946443676952
1669803496.5964134,348,1669803496,596033634,imu_link,-0.014070451259613037,0.003364752046763897,-0.02816242910921574
1669803496.6015792,349,1669803496,601319683,imu_link,-0.014657510444521904,-0.0042454185895621785,-0.0363670289516449
1669803496.6069746,350,1669803496,606658358,imu_link,-0.012850101105868818,-0.0060564326122403145,-0.03766193240880966
1669803496.611203,351,1669803496,610967588,imu_link,-0.013922883197665215,-0.009031712077558042,-0.03172081708908081
1669803496.6164684,352,1669803496,616210044,imu_link,-0.014927193522453308,-0.008399853482842445,-0.029411917552351955
1669803496.6218023,353,1669803496,621557163,imu_link,-0.015945835039019588,-0.00597912073135376,-0.03628353402018548
1669803496.6282034,354,1669803496,627939785,imu_link,-0.013569870963692665,-0.006158614996820689,-0.03385614976286889
1669803496.6313539,355,1669803496,631157970,imu_link,-0.011886634863913061,-0.004837659187614918,-0.0341758318245411
1669803496.637626,356,1669803496,636787979,imu_link,-0.012952066957950592,-0.008567467331886292,-0.03393368050456048
1669803496.6418295,357,1669803496,641199243,imu_link,-0.012043243274092674,-0.0074423481710255155,-0.028198175132274628
1669803496.6468377,358,1669803496,646450663,imu_link,-0.009579220786690712,-0.004368372727185489,-0.028382970020174984
1669803496.6521685,359,1669803496,651873494,imu_link,-0.014950486831367018,-0.0056310538202524185,-0.031164983287453655
1669803496.6564248,360,1669803496,656206609,imu_link,-0.018335871398448944,-0.003097173757851124,-0.025023536756634716
1669803496.661712,361,1669803496,661378205,imu_link,-0.017907401546835903,-0.005012724548578262,-0.018820988014340404
1669803496.667037,362,1669803496,666697227,imu_link,-0.018046785145998,-0.0027291530277580027,-0.020861642435193065
1669803496.67222,363,1669803496,671945252,imu_link,-0.01889319531619549,-0.0021583675406873226,-0.01861006207764149
1669803496.676383,364,1669803496,676177745,imu_link,-0.01763999275863171,-0.0026702235918492083,-0.010933006182312965
1669803496.6817648,365,1669803496,681487611,imu_link,-0.015490490943193436,-0.0030830574687570338,-0.011101379990577698
1669803496.6877768,366,1669803496,686823205,imu_link,-0.016952350735664368,0.0005662692128680648,-0.013224727474153044
1669803496.6918073,367,1669803496,691185868,imu_link,-0.01712069660425186,0.00035088407457806175,-0.0065311528742313385
1669803496.6971548,368,1669803496,696613784,imu_link,-0.019667290151119232,0.0013201436959207058,-0.014944394119083883
1669803496.7035167,369,1669803496,703044380,imu_link,-0.023253243416547775,0.0013179847737774255,-0.01660066470503807
1669803496.7065654,370,1669803496,706248985,imu_link,-0.023046858608722687,0.0035927013959735636,-0.011212420649826528
1669803496.7121913,371,1669803496,711567916,imu_link,-0.018462529405951503,0.002258969470858574,-0.007477448787540198
1669803496.7178516,372,1669803496,717092635,imu_link,-0.01407707203179598,0.005973196122795344,-0.012497635558247566
1669803496.7220228,373,1669803496,721360301,imu_link,-0.014205361716449262,0.007740443572402,-0.015623775310814382
1669803496.727058,374,1669803496,726792807,imu_link,-0.017865007743239406,0.006958081386983395,-0.01911073923110962
1669803496.7313612,375,1669803496,731058840,imu_link,-0.01894831284880638,0.006876154337078334,-0.018081817775964737
1669803496.736859,376,1669803496,736460134,imu_link,-0.015324366278946401,0.0065901228226721295,-0.016490325331687927
1669803496.7421603,377,1669803496,741682176,imu_link,-0.013059421442449095,0.009287109598517418,-0.011355417780578138
1669803496.7471762,378,1669803496,746913433,imu_link,-0.013929543085396292,0.004839891567826271,-0.017012707889080048
1669803496.7514741,379,1669803496,751158709,imu_link,-0.016451628878712658,0.004201311618089676,-0.023512559011578563
1669803496.7566907,380,1669803496,756418137,imu_link,-0.016055289655923843,0.004120809957385063,-0.01909062080085278
1669803496.7620091,381,1669803496,761732271,imu_link,-0.01394827850162983,0.004055366385728122,-0.022041764110326767
1669803496.7663531,382,1669803496,766009938,imu_link,-0.015451062470674515,0.0007339127478189767,-0.024361876770854
1669803496.7715898,383,1669803496,771366869,imu_link,-0.01504426170140505,0.00019661997794173658,-0.022222073748707775
1669803496.777319,384,1669803496,776669991,imu_link,-0.013352175243198873,-0.0010064692469313743,-0.024894632399082184
1669803496.7837517,385,1669803496,783102166,imu_link,-0.011554410681128502,-0.0007250840426422657,-0.029124300926923752
1669803496.7869117,386,1669803496,786301510,imu_link,-0.013573409058153631,0.0014208629727363586,-0.01997578889131546
1669803496.791932,387,1669803496,791578664,imu_link,-0.01984318345785141,0.0007003057398833336,-0.01858169585466385
1669803496.7973478,388,1669803496,796975212,imu_link,-0.012409713119268417,0.0002674269489943981,-0.026323633268475536
1669803496.8015063,389,1669803496,801147784,imu_link,-0.013085545971989632,-0.0027790532913059,-0.0276140496134758
1669803496.8067882,390,1669803496,806490237,imu_link,-0.011722018010914327,-0.007333474233746529,-0.025627046823501587
1669803496.8119884,391,1669803496,811741627,imu_link,-0.01182781346142292,-0.00584879843518138,-0.023511767387390137
1669803496.8162794,392,1669803496,815964502,imu_link,-0.013338076882064344,-0.005418847780674697,-0.022283166646957397
1669803496.822215,393,1669803496,821506991,imu_link,-0.015641661360859874,-0.010623753070831299,-0.022561183199286464
1669803496.8275895,394,1669803496,826995530,imu_link,-0.015385428443551064,-0.009423526935279371,-0.02079829759895802
1669803496.8318486,395,1669803496,831314158,imu_link,-0.012858875095844269,-0.00870740693062544,-0.02400435507297516
1669803496.8370502,396,1669803496,836621732,imu_link,-0.013691907748579979,-0.011127499863505363,-0.01665054447948933
1669803496.843323,397,1669803496,843020611,imu_link,-0.01239035464823246,-0.006851600017398597,-0.018779147416353226
1669803496.8467555,398,1669803496,846266258,imu_link,-0.014842290431261063,-0.009381105192005636,-0.019911652430891994
1669803496.8521314,399,1669803496,851660227,imu_link,-0.010473233647644522,-0.015268463641405106,-0.018612330779433254
1669803496.8572724,400,1669803496,856928022,imu_link,-0.014419876970350744,-0.009465926326811315,-0.017517056316137314
1669803496.8614786,401,1669803496,861190154,imu_link,-0.010761521756649017,-0.00692016026005149,-0.019306719303131104
1669803496.8667777,402,1669803496,866540242,imu_link,-0.010784705169498922,-0.005683314986526966,-0.014936931431293488
1669803496.8719726,403,1669803496,871784037,imu_link,-0.011956673115491867,-0.004666405264288188,-0.011595312505960464
1669803496.8762317,404,1669803496,875976926,imu_link,-0.012247235514223577,-0.006069297436624766,-0.016853217035531998
1669803496.8816664,405,1669803496,881268239,imu_link,-0.015352725982666016,-0.0036030223127454524,-0.014044299721717834
1669803496.8870566,406,1669803496,886619795,imu_link,-0.01237691380083561,-0.007214402314275504,-0.007028108928352595
1669803496.8922374,407,1669803496,891871199,imu_link,-0.014861663803458214,-0.0008612793753854931,-0.003211988601833582
1669803496.8963249,408,1669803496,896094304,imu_link,-0.01311077829450369,-0.004457724746316672,-0.009800488129258156
1669803496.9017835,409,1669803496,901465445,imu_link,-0.01408533938229084,-0.0056266416795551786,-0.0042967479676008224
1669803496.907063,410,1669803496,906727327,imu_link,-0.01304149441421032,-0.0007935177418403329,0.00017357709293719384
1669803496.9133034,411,1669803496,912992484,imu_link,-0.011581184342503548,-0.0014089200412854554,0.0010363340843468904
1669803496.9164937,412,1669803496,916117398,imu_link,-0.01734420284628868,0.00021008687326684594,0.005134946200996638
1669803496.921641,413,1669803496,921365644,imu_link,-0.014236553572118284,0.00013404260971583426,0.005544766318053008
1669803496.9269965,414,1669803496,926625466,imu_link,-0.014957025647163391,-0.003649341640993953,-0.006903714034706355
1669803496.933891,415,1669803496,933070122,imu_link,-0.015280395746231079,-0.0033237237948924307,-0.005140894092619419
1669803496.9369206,416,1669803496,936263278,imu_link,-0.014086823910474777,-0.0017672674730420113,0.005112561862915755
1669803496.9423952,417,1669803496,941720434,imu_link,-0.014040616340935232,-0.0007175075588747859,-0.0015735881170257928
1669803496.9488015,418,1669803496,948126932,imu_link,-0.012293475680053236,-0.0026523880660533905,-0.0033474965021014214
1669803496.951815,419,1669803496,951295338,imu_link,-0.014000402763485909,-0.008065220899879934,0.000954474089667201
1669803496.957068,420,1669803496,956658719,imu_link,-0.0105373477563262,-0.002492975210770965,-0.002487781923264265
1669803496.9622316,421,1669803496,961926311,imu_link,-0.011461966671049597,-0.0036016167141497135,-0.0023923984263092284
1669803496.9665413,422,1669803496,966163707,imu_link,-0.0093437721952796,-0.0029250886291265488,-0.003418339416384697
1669803496.9718723,423,1669803496,971468290,imu_link,-0.004493461921811104,-0.005102904047816993,-0.006965538486838341
1669803496.9775858,424,1669803496,976916429,imu_link,-0.005420315079391003,-0.010038934648036957,-0.01487282942980528
1669803496.9821215,425,1669803496,981264060,imu_link,-0.009430919773876669,-0.006103558465838432,-0.012375411577522756
1669803496.9873135,426,1669803496,986688853,imu_link,-0.005406839773058891,-0.011230272240936758,-0.012282294221222402
1669803496.993422,427,1669803496,993040640,imu_link,-0.0036970085930079226,-0.007521425373852253,-0.01213918346911669
1669803496.9965003,428,1669803496,996198978,imu_link,-0.004863000940531493,-0.012353786267340185,-0.014276821166276932
1669803497.001868,429,1669803497,1479807,imu_link,-0.002852054312825203,-0.011187802068889143,-0.013256072998046875
1669803497.0070918,430,1669803497,6819256,imu_link,0.0008910907199606299,-0.012782172299921514,-0.019136106595397
1669803497.0119188,431,1669803497,11167435,imu_link,-0.0045329974964261055,-0.01354141812771559,-0.013198694214224815
1669803497.0173135,432,1669803497,16616042,imu_link,-0.001636130618862808,-0.012604883871972563,-0.0069566285237669945
1669803497.0237205,433,1669803497,23052987,imu_link,-0.0034354282543063164,-0.012215982191264631,-0.006591523066163063
1669803497.0266824,434,1669803497,26252930,imu_link,-0.000934324343688786,-0.011591616086661817,-0.007399913389235736
1669803497.0318234,435,1669803497,31517174,imu_link,-0.0021592590492218737,-0.015120193362236023,-0.0028327393811196093
1669803497.0372338,436,1669803497,36895757,imu_link,-0.00030326741398312157,-0.01511871721595526,-0.0020772493444383144
1669803497.0413578,437,1669803497,41128547,imu_link,-0.0049657984636724,-0.013371558859944344,-0.005799538921564818
1669803497.0472524,438,1669803497,46552794,imu_link,-0.006727140862494708,-0.013682985678315163,0.00048129900824278593
1669803497.0527058,439,1669803497,51971981,imu_link,-0.006317385472357273,-0.01574306003749371,0.00043147592805325985
1669803497.0569744,440,1669803497,56289494,imu_link,-0.005095501895993949,-0.011423208750784399,0.0030800695531070232
1669803497.0620515,441,1669803497,61679479,imu_link,0.00031287939054891467,-0.013186772353947164,0.009176155552268028
1669803497.0683556,442,1669803497,68010555,imu_link,-0.006300195120275021,-0.005549224559217692,0.014297659508883955
1669803497.071454,443,1669803497,71160501,imu_link,-0.002514543477445841,-0.007227849680930377,0.012034904211759567
1669803497.0767841,444,1669803497,76474538,imu_link,-0.009147798642516136,-0.011058198288083076,0.01065057795494795
1669803497.0825615,445,1669803497,81867137,imu_link,-0.006529734469950199,-0.00739021459594369,0.01546664908528328
1669803497.0869195,446,1669803497,86209465,imu_link,-0.007034132722765208,-0.005790588445961475,0.013709796592593193
1669803497.0921144,447,1669803497,91550477,imu_link,-0.005686269141733646,-0.002793204272165895,0.015673048794269562
1669803497.097322,448,1669803497,96885233,imu_link,-0.006625826470553875,-0.0034547080285847187,0.015546401031315328
1669803497.1013846,449,1669803497,101123865,imu_link,-0.004305691458284855,-0.0010572735918685796,0.01548677496612072
1669803497.106731,450,1669803497,106482504,imu_link,-0.007230801973491908,3.8046717236284167e-05,0.008714186027646065
1669803497.1119916,451,1669803497,111806980,imu_link,-0.00335197220556438,0.004208057187497616,0.010881598107516767
1669803497.116888,452,1669803497,116159932,imu_link,-0.0017478815279901028,0.004111983813345432,0.012505800463259222
1669803497.1223834,453,1669803497,121626487,imu_link,-0.004758676048368216,0.002723943442106247,0.0061661028303205976
1669803497.1274948,454,1669803497,126923396,imu_link,-0.0042229946702718735,0.003221646184101701,0.00812038127332926
1669803497.1315331,455,1669803497,131176737,imu_link,-0.0009909338550642135,0.0053159743547439575,0.010013588704168798
1669803497.1368568,456,1669803497,136534485,imu_link,-0.00471696024760604,0.004928544629365207,0.010922558605670929
1669803497.1421332,457,1669803497,141860421,imu_link,-0.004515789449214935,0.007068393286317588,0.013788778334856033
1669803497.146477,458,1669803497,146159516,imu_link,-0.004192437510937453,0.0014252790715545416,0.011929875239729881
1669803497.1523433,459,1669803497,151544021,imu_link,-0.0011309969704598188,0.0023439426440745596,0.008116664364933968
1669803497.157794,460,1669803497,157045571,imu_link,-0.0031709403265267615,0.0018783082487061622,0.004119438119232655
1669803497.1622233,461,1669803497,161479269,imu_link,-0.002223265124484897,-0.0008121099090203643,0.004901733715087176
1669803497.1674075,462,1669803497,166945470,imu_link,-6.929422670509666e-05,-0.0011600634315982463,0.005532055627554656
1669803497.1721704,463,1669803497,171336186,imu_link,-0.0015571587719023228,-0.006199632305651904,0.0013783543836325407
1669803497.177105,464,1669803497,176772403,imu_link,-0.002808857709169388,-0.0036329212598502636,0.004282586742192508
1669803497.1814203,465,1669803497,181068192,imu_link,-0.0019252550555393102,-0.005295844748616219,0.00497477361932397
1669803497.1866252,466,1669803497,186377342,imu_link,-0.003279000986367464,-0.0010974701726809146,0.002280623419210315
1669803497.1925538,467,1669803497,191831626,imu_link,-0.0026255899574607615,-0.007403629831969738,0.005546224769204856
1669803497.196872,468,1669803497,196169747,imu_link,-0.004501608200371265,-0.008925804868340492,0.003171729622408748
1669803497.2020698,469,1669803497,201553667,imu_link,-0.003376566804945469,-0.011522335000336172,0.0010706675238907337
1669803497.2073562,470,1669803497,206933707,imu_link,-0.0040531749837100515,-0.011311450973153114,0.0001072925515472889
1669803497.211486,471,1669803497,211206679,imu_link,-0.0015132358530536296,-0.010249746963381767,0.00772925140336156
1669803497.2167306,472,1669803497,216470567,imu_link,-0.0058270413428545,-0.012031970545649529,0.010674447752535345
1669803497.2221189,473,1669803497,221808454,imu_link,0.00030547677306458354,-0.012716661207377912,0.0021047350019216537
1669803497.2270844,474,1669803497,226226340,imu_link,-0.0033237237948924307,-0.011769657954573631,0.005801801569759846
1669803497.232264,475,1669803497,231740168,imu_link,-0.0002942576829809696,-0.0148870088160038,0.002732859225943685
1669803497.2366517,476,1669803497,236096283,imu_link,-0.0021555195562541485,-0.010796623304486275,-0.0006705503328703345
1669803497.2418306,477,1669803497,241492625,imu_link,-0.0006914620171301068,-0.011981276795268059,0.005888193380087615
1669803497.2471082,478,1669803497,246823203,imu_link,0.0013724009040743113,-0.005103651899844409,0.008765605278313162
1669803497.251572,479,1669803497,251199227,imu_link,-0.0012777984375134113,-0.006873161531984806,0.0014237867435440423
1669803497.2568622,480,1669803497,256554690,imu_link,-0.003783402033150196,-0.0070020584389567375,0.0066280378960073
1669803497.2621436,481,1669803497,261824065,imu_link,8.344380330527203e-05,-0.007998190820217133,0.00686944229528308
1669803497.268554,482,1669803497,268254200,imu_link,-0.004710996989160777,-0.007482623681426048,0.0017873847391456366
1669803497.271937,483,1669803497,271345742,imu_link,-0.0009864929597824812,-0.010682637803256513,-0.0024989270605146885
1669803497.2768674,484,1669803497,276590554,imu_link,0.0023826903197914366,-0.007446107920259238,0.0035584112629294395
1669803497.2837918,485,1669803497,283071312,imu_link,0.00037849502405151725,-0.006138531956821681,-0.0007271902868524194
1669803497.2872078,486,1669803497,286382581,imu_link,-0.002726920181885362,-0.007864825427532196,0.0019952766597270966
1669803497.2926404,487,1669803497,291907253,imu_link,0.0007644275319762529,-0.002736604306846857,0.0031061421614140276
1669803497.297042,488,1669803497,296310503,imu_link,0.002389384899288416,-0.005204987712204456,-0.0044055222533643254
1669803497.3024757,489,1669803497,301936101,imu_link,0.00034051053808070725,-0.0030152620747685432,-0.004096319433301688
1669803497.3063881,490,1669803497,306131047,imu_link,0.0008687281515449286,-0.005487356800585986,-0.002223994350060821
1669803497.311951,491,1669803497,311477142,imu_link,0.004141054581850768,-0.00582039263099432,-0.003223842708393932
1669803497.3170125,492,1669803497,316784731,imu_link,0.005694485269486904,-0.0020772013813257217,-0.000649705354589969
1669803497.3213463,493,1669803497,321088514,imu_link,0.0037402019370347266,-0.0050812894478440285,0.0002764113305602223
1669803497.3268023,494,1669803497,326449224,imu_link,0.006174309644848109,-0.005997705273330212,0.0010937349870800972
1669803497.3321939,495,1669803497,331915023,imu_link,0.00915006548166275,-0.0033408298622816805,-0.0011123549193143845
1669803497.3369126,496,1669803497,336243007,imu_link,0.004784004762768745,-0.003046585712581873,0.005765247624367476
1669803497.3425272,497,1669803497,341778982,imu_link,0.0037111626006662846,-0.0030226663220673804,0.010862201452255249
1669803497.3481717,498,1669803497,346182622,imu_link,0.006005181465297938,-0.004283305257558823,0.0044085243716835976
1669803497.3523817,499,1669803497,351614815,imu_link,0.0014759460464119911,-0.008080157451331617,0.0011965716257691383
1669803497.357612,500,1669803497,356961316,imu_link,0.002145772334188223,-0.0062838345766067505,0.008411695249378683
1669803497.3616962,501,1669803497,361246368,imu_link,0.006400788202881813,-0.007067610044032336,0.013840949162840843
1669803497.3674035,502,1669803497,366727966,imu_link,0.002538377419114113,-0.008329006843268873,0.012722617946565153
1669803497.3723006,503,1669803497,371954059,imu_link,0.003428719704970718,-0.008250020444393158,0.012754664756357672
1669803497.376539,504,1669803497,376173037,imu_link,0.0023498982191085815,-0.0086277537047863,0.011855379678308966
1669803497.3817651,505,1669803497,381452706,imu_link,-0.0007450115517713131,-0.004979988560080528,0.008486947976052763
1669803497.3870053,506,1669803497,386756167,imu_link,0.00044105941196903586,-0.0096522169187665,0.016270587220788005
1669803497.3933253,507,1669803497,392984930,imu_link,0.0020831702277064323,-0.008018299005925657,0.013426704332232475
1669803497.3964663,508,1669803497,396149494,imu_link,-7.450939301634209e-05,-0.008543572388589384,0.0128522589802742
1669803497.4021723,509,1669803497,401604793,imu_link,-0.00041798973688855767,-0.008941459469497206,0.011155739426612854
1669803497.4088147,510,1669803497,408121941,imu_link,-0.001402221969328821,-0.005293612368404865,0.018644336611032486
1669803497.4117544,511,1669803497,411334145,imu_link,0.0036076330579817295,-0.006639920640736819,0.012344125658273697
1669803497.417232,512,1669803497,416835674,imu_link,0.0033035890664905314,-0.007127234246581794,0.011384481564164162
1669803497.421392,513,1669803497,421119771,imu_link,-0.0009343245765194297,-0.011555123142898084,0.013901278376579285
1669803497.4267774,514,1669803497,426455727,imu_link,0.005278744734823704,-0.012657045386731626,0.006154924165457488
1669803497.432268,515,1669803497,431953644,imu_link,-0.00019598033395595849,-0.010103003121912481,0.007592122070491314
1669803497.4364784,516,1669803497,436213833,imu_link,0.0031492884736508135,-0.0059962510131299504,0.01545027643442154
1669803497.441904,517,1669803497,441585952,imu_link,-0.000832965539302677,-0.0025868606753647327,0.013069807551801206
1669803497.4471076,518,1669803497,446859065,imu_link,0.00143499206751585,-0.002684413688257337,0.009740897454321386
1669803497.4515321,519,1669803497,451191715,imu_link,0.0015072114765644073,-0.00396740296855569,0.011941807344555855
1669803497.4566298,520,1669803497,456384358,imu_link,-0.00045594546827487653,-0.0026531557086855177,0.009550154209136963
1669803497.462186,521,1669803497,461684556,imu_link,-0.002174089895561338,0.0003844499005936086,0.010465831495821478
1669803497.466911,522,1669803497,466144258,imu_link,-0.0022970188874751334,0.0003509248490445316,0.01088753156363964
1669803497.4722621,523,1669803497,471560429,imu_link,-0.005456812214106322,0.0033632181584835052,0.011518589220941068
1669803497.4781222,524,1669803497,476990355,imu_link,-0.0011801810469478369,0.003007784951478243,0.005672878120094539
1669803497.4818704,525,1669803497,481204562,imu_link,-0.0005081144045107068,0.007250168360769749,0.005501500796526671
1669803497.4871166,526,1669803497,486551195,imu_link,-0.0024557108990848064,0.0037438708823174243,0.01478345599025488
1669803497.4927092,527,1669803497,492054793,imu_link,-0.0074677057564258575,0.009621010161936285,0.012075848877429962
1669803497.4968047,528,1669803497,496287600,imu_link,0.0005066066514700651,0.004760943353176117,0.010459863580763342
1669803497.5021687,529,1669803497,501572485,imu_link,-0.004448710475116969,0.008396081626415253,0.016613302752375606
1669803497.5072446,530,1669803497,506843002,imu_link,0.0005282583879306912,0.005752580706030131,0.007715086918324233
1669803497.511787,531,1669803497,511220349,imu_link,-0.001940122339874506,0.009731196798384191,0.002940027043223381
1669803497.5168505,532,1669803497,516589156,imu_link,-0.0016570255393162372,0.007563828025013209,0.010995563119649887
1669803497.5233076,533,1669803497,522980394,imu_link,-0.0011593120871111753,0.0029631084762513638,0.012890248559415342
1669803497.5267208,534,1669803497,526283373,imu_link,-0.0022925341036170725,0.0046618422493338585,0.0038087256252765656
1669803497.5319226,535,1669803497,531623295,imu_link,-0.004749001469463111,0.0031173359602689743,0.010214743204414846
1669803497.5383089,536,1669803497,538028186,imu_link,-0.005813689902424812,0.004453220404684544,0.010226664133369924
1669803497.5415032,537,1669803497,541169854,imu_link,-0.0006593728321604432,0.0018298635259270668,0.00734701892361045
1669803497.5470145,538,1669803497,546699916,imu_link,-0.0036634309217333794,0.0028722260612994437,0.007650256622582675
1669803497.5534298,539,1669803497,553017798,imu_link,-0.003696986241266132,0.0017717471346259117,0.006169822532683612
1669803497.55656,540,1669803497,556185539,imu_link,-0.0021934483665972952,0.0022009101230651145,0.0012949013616889715
1669803497.5622275,541,1669803497,561650135,imu_link,0.0011153618106618526,0.002982459496706724,0.004265461582690478
1669803497.5687912,542,1669803497,568073885,imu_link,0.001557184848934412,0.003481677966192365,0.006959574762731791
1669803497.572005,543,1669803497,571298197,imu_link,-0.0021644143853336577,0.002464642282575369,0.0025160533841699366
1669803497.5769844,544,1669803497,576672787,imu_link,-0.0029675764963030815,-0.0003494410775601864,0.0049680410884320745
1669803497.5834122,545,1669803497,583073343,imu_link,-0.005101419519633056,0.0025466163642704487,0.002689640270546079
1669803497.5865417,546,1669803497,586287287,imu_link,-0.0031642592512071133,2.220399665020523e-06,0.005449356976896525
1669803497.5923274,547,1669803497,591656237,imu_link,-0.004486738238483668,0.002130872569978237,0.0013314111856743696
1669803497.5973547,548,1669803497,596957093,imu_link,-0.0052400026470422745,-0.0007659124676138163,0.010188666172325613
1669803497.6028166,549,1669803497,601325732,imu_link,-0.00805782899260521,-0.0004262040311004967,0.011577438563108444
1669803497.6073465,550,1669803497,606708221,imu_link,-0.008861717768013479,0.0002927639870904386,0.006650399416685104
1669803497.6138082,551,1669803497,613139016,imu_link,-0.008717936463654043,0.003437652252614498,0.01205579284578562
1669803497.6169703,552,1669803497,616337835,imu_link,-0.011292845942080023,-0.0014856016496196391,0.010014332830905914
1669803497.6223192,553,1669803497,621763041,imu_link,-0.006096809171140194,-0.0017330179689452054,0.002463156823068857
1669803497.6288044,554,1669803497,628123473,imu_link,-0.009048731066286566,-0.0014975762460380793,0.0001348730584140867
1669803497.631659,555,1669803497,631244276,imu_link,-0.0062443516217172155,0.0021375371143221855,0.0026739959139376883
1669803497.6370273,556,1669803497,636716830,imu_link,-0.0068701766431331635,0.004837667569518089,0.0033035904634743933
1669803497.6431737,557,1669803497,642943400,imu_link,-0.007181609980762005,0.0048034009523689756,0.0038556717336177826
1669803497.646231,558,1669803497,646021021,imu_link,-0.005254895426332951,0.004580629523843528,0.0038876978214830164
1669803497.6516135,559,1669803497,651345707,imu_link,-0.005664654076099396,0.0004872582212556154,-0.004624602384865284
1669803497.6572082,560,1669803497,656738660,imu_link,-0.006580357905477286,0.0007569973240606488,-0.00801682099699974
1669803497.663609,561,1669803497,663034685,imu_link,-0.008396058343350889,0.0012256409972906113,0.0005982565344311298
1669803497.6664064,562,1669803497,666150684,imu_link,-0.009379524737596512,0.0013723910087719562,0.003454867517575622
1669803497.671681,563,1669803497,671419905,imu_link,-0.009639568626880646,0.0025428996887058024,-0.007878974080085754
1669803497.6771262,564,1669803497,676724906,imu_link,-0.007260621059685946,0.0029064400587230925,-0.008872885257005692
1669803497.6834035,565,1669803497,683126250,imu_link,-0.010165563784539701,0.00305099505931139,-0.007043801713734866
1669803497.6865118,566,1669803497,686294050,imu_link,-0.010753432288765907,0.002768598729744554,-0.01418143603950739
1669803497.69195,567,1669803497,691575827,imu_link,-0.011065565049648285,0.0029631366487592463,-0.010523973032832146
1669803497.6970885,568,1669803497,696820233,imu_link,-0.008250794373452665,0.0030823030974715952,-0.008062999695539474
1669803497.7013783,569,1669803497,701062325,imu_link,-0.010421845130622389,-0.00048731802962720394,-0.0148058133199811
1669803497.706634,570,1669803497,706386561,imu_link,-0.009707426652312279,0.003003360470756889,-0.017988638952374462
1669803497.711967,571,1669803497,711680301,imu_link,-0.011051435954868795,0.003472740761935711,-0.013656920753419401
1669803497.7184365,572,1669803497,718040536,imu_link,-0.014264891855418684,0.00639264238998294,-0.01001652516424656
1669803497.7215545,573,1669803497,721216263,imu_link,-0.009933868423104286,0.005128909368067981,-0.018232334405183792
1669803497.7274678,574,1669803497,726514804,imu_link,-0.016073837876319885,0.0066795055754482755,-0.01279266830533743
1669803497.7321398,575,1669803497,731854954,imu_link,-0.013002027757465841,0.0010177500080317259,-0.015296774916350843
1669803497.736388,576,1669803497,736114983,imu_link,-0.012915613129734993,0.004075396806001663,-0.020050255581736568
1669803497.7417529,577,1669803497,741366994,imu_link,-0.016178166493773464,0.004081462509930134,-0.020074868574738506
1669803497.747026,578,1669803497,746760699,imu_link,-0.012446985580027105,0.0014118750113993883,-0.016958236694335938
1669803497.7533932,579,1669803497,753022353,imu_link,-0.014340134337544441,-0.0020915062632411723,-0.02475752681493759
1669803497.7564194,580,1669803497,756154804,imu_link,-0.014241063036024572,0.0015482128364965322,-0.030117470771074295
1669803497.7617528,581,1669803497,761501772,imu_link,-0.016085844486951828,0.0008189000072889031,-0.023229390382766724
1669803497.7668884,582,1669803497,766664691,imu_link,-0.01589958742260933,-0.007178620900958777,-0.022788314148783687
1669803497.773349,583,1669803497,773064976,imu_link,-0.015592641197144987,-0.0017910634633153677,-0.02500857971608639
1669803497.776669,584,1669803497,776212743,imu_link,-0.018488662317395214,-0.0052601643837988385,-0.02453620731830597
1669803497.78201,585,1669803497,781664139,imu_link,-0.012944573536515236,-0.005775033030658961,-0.02493785321712494
1669803497.7883887,586,1669803497,788067538,imu_link,-0.014890659600496292,-0.007039273623377086,-0.026095716282725338
1669803497.7914193,587,1669803497,791131012,imu_link,-0.017227258533239365,-0.010649056173861028,-0.020404916256666183
1669803497.7967975,588,1669803497,796410766,imu_link,-0.013746259734034538,-0.010589567944407463,-0.020895166322588924
1669803497.801978,589,1669803497,801681367,imu_link,-0.014815567992627622,-0.008753696456551552,-0.029627187177538875
1669803497.8071525,590,1669803497,806878673,imu_link,-0.020641110837459564,-0.014166391454637052,-0.02288528345525265
1669803497.8113883,591,1669803497,811125297,imu_link,-0.01776894368231297,-0.01595466211438179,-0.021523943170905117
1669803497.8168998,592,1669803497,816392112,imu_link,-0.018569745123386383,-0.017037928104400635,-0.023516377434134487
1669803497.821959,593,1669803497,821635179,imu_link,-0.020056255161762238,-0.01438483875244856,-0.022443339228630066
1669803497.828324,594,1669803497,827959313,imu_link,-0.01730625331401825,-0.017231645062565807,-0.01875237934291363
1669803497.8312814,595,1669803497,831077722,imu_link,-0.02201866172254086,-0.015636619180440903,-0.016783157363533977
1669803497.8368456,596,1669803497,836516227,imu_link,-0.020108327269554138,-0.015277443453669548,-0.016047840937972072
1669803497.8422801,597,1669803497,841929497,imu_link,-0.020435482263565063,-0.012628640048205854,-0.012026779353618622
1669803497.8468168,598,1669803497,846177423,imu_link,-0.020911520346999172,-0.01889396831393242,-0.0106818787753582
1669803497.8518941,599,1669803497,851507765,imu_link,-0.019131604582071304,-0.012572041712701322,-0.011779433116316795
1669803497.85721,600,1669803497,856871684,imu_link,-0.02273174747824669,-0.012794068083167076,-0.010232669301331045
1669803497.862007,601,1669803497,861333311,imu_link,-0.023332895711064342,-0.011702746152877808,-0.007186188828200103
1669803497.867328,602,1669803497,866682407,imu_link,-0.022061146795749664,-0.00885352957993746,-0.013837258331477644
1669803497.8737738,603,1669803497,873069310,imu_link,-0.01996761001646519,-0.010131219401955605,-0.010291467420756819
1669803497.876939,604,1669803497,876237401,imu_link,-0.020956268534064296,-0.010552237741649153,-0.0014833668246865273
1669803497.8822176,605,1669803497,881634483,imu_link,-0.01836870424449444,-0.012167520821094513,-0.008738729171454908
1669803497.8875203,606,1669803497,886993452,imu_link,-0.021658098325133327,-0.00922379456460476,-0.00874551385641098
1669803497.8917909,607,1669803497,891242933,imu_link,-0.01995338872075081,-0.008183733560144903,-0.005639360286295414
1669803497.8969238,608,1669803497,896563792,imu_link,-0.015777317807078365,-0.008820788003504278,-0.0038959537632763386
1669803497.9021893,609,1669803497,901888916,imu_link,-0.01487806811928749,-0.004298283252865077,-0.010342873632907867
1669803497.9064186,610,1669803497,906150195,imu_link,-0.017064057290554047,-0.002554821548983455,-0.006356097292155028
1669803497.9117305,611,1669803497,911453575,imu_link,-0.01638085208833218,-0.003502500243484974,-0.0013343967730179431
1669803497.9175978,612,1669803497,916870303,imu_link,-0.018914787098765377,-0.002489960985258222,-0.005676626227796078
1669803497.9220412,613,1669803497,921135184,imu_link,-0.015764687210321426,-0.0028147816192358737,-0.0020347791723906994
1669803497.9270606,614,1669803497,926522415,imu_link,-0.013025849126279356,-0.0012144758366048336,-0.0004931890871375799
1669803497.932595,615,1669803497,931828786,imu_link,-0.016507504507899288,-0.000409034953918308,-0.002791765378788114
1669803497.9367492,616,1669803497,936150447,imu_link,-0.016927726566791534,-0.000562427332624793,0.005220608320087195
1669803497.9423869,617,1669803497,941580858,imu_link,-0.013588380068540573,0.00027569432859309023,0.007490793243050575
1669803497.9475746,618,1669803497,946918097,imu_link,-0.011303295381367208,0.0018373059574514627,0.009188780561089516
1669803497.9519176,619,1669803497,951225571,imu_link,-0.010070928372442724,0.0027053174562752247,0.012306888587772848
1669803497.9572415,620,1669803497,956620779,imu_link,-0.016967957839369777,0.0007510465220548214,0.016287706792354584
1669803497.9635577,621,1669803497,963068596,imu_link,-0.01734491623938084,0.0015504322946071625,0.016067968681454662
1669803497.9667926,622,1669803497,966306644,imu_link,-0.01295209024101496,-0.002114489208906889,0.015488268807530403
1669803497.9722342,623,1669803497,971716893,imu_link,-0.010926323942840101,-0.003903247881680727,0.023321064189076427
1669803497.9789371,624,1669803497,978158942,imu_link,-0.014857177622616293,-0.00017358885088469836,0.019947458058595657
1669803497.9818842,625,1669803497,981378360,imu_link,-0.014257419854402542,-0.003938501235097648,0.020699933171272278
1669803497.9872024,626,1669803497,986782120,imu_link,-0.014539103955030441,-0.0006384367006830872,0.026513619348406795
1669803497.9934855,627,1669803497,993076067,imu_link,-0.014820641838014128,0.0018186620436608791,0.03190937265753747
1669803497.9965293,628,1669803497,996263605,imu_link,-0.01551060099154711,0.0018552489345893266,0.024578727781772614
1669803498.001792,629,1669803498,1541168,imu_link,-0.016274262219667435,-0.0022798369172960524,0.02737569808959961
1669803498.0071847,630,1669803498,6776994,imu_link,-0.016485892236232758,0.00025998041382990783,0.025209045037627224
1669803498.0141506,631,1669803498,13219883,imu_link,-0.01439974270761013,0.0016779754078015687,0.022066373378038406
1669803498.0171585,632,1669803498,16462567,imu_link,-0.013453517109155655,0.0034757182002067566,0.024735925719141964
1669803498.0224159,633,1669803498,21844155,imu_link,-0.012593725696206093,0.00784843321889639,0.02562105283141136
1669803498.026569,634,1669803498,26098668,imu_link,-0.012806093320250511,0.008226110599935057,0.02248734794557095
1669803498.0317485,635,1669803498,31410419,imu_link,-0.009990451857447624,0.00871871877461672,0.016882266849279404
1669803498.0371442,636,1669803498,36725889,imu_link,-0.010912098921835424,0.00970581639558077,0.018397018313407898
1669803498.0436256,637,1669803498,43107864,imu_link,-0.009759509935975075,0.003366926917806268,0.017623603343963623
1669803498.0466015,638,1669803498,46219875,imu_link,-0.008394549600780012,0.006120625883340836,0.010263951495289803
1669803498.0517485,639,1669803498,51499570,imu_link,-0.003992004785686732,0.003361742477864027,0.01222639810293913
1669803498.057112,640,1669803498,56747563,imu_link,-0.005984334275126457,0.0032551432959735394,0.009182081557810308
1669803498.0635393,641,1669803498,63251869,imu_link,-0.0033296598121523857,0.008562947623431684,0.009237982332706451
1669803498.0665293,642,1669803498,66361760,imu_link,-0.0034615127369761467,0.005625199992209674,0.010186436586081983
1669803498.0720057,643,1669803498,71728832,imu_link,-0.00514837121590972,0.0035658106207847595,0.012136255390942098
1669803498.0782092,644,1669803498,78003559,imu_link,-0.0003658473433461041,0.006412711460143329,0.005088002420961857
1669803498.081316,645,1669803498,81103568,imu_link,-0.002169625833630562,0.00173150806222111,0.00603124126791954
1669803498.0865915,646,1669803498,86362564,imu_link,0.0006131663685664535,0.005079802591353656,0.00860319007188082
1669803498.0917535,647,1669803498,91606662,imu_link,-0.00012892360973637554,0.005190061405301094,0.0061124670319259175
1669803498.0970824,648,1669803498,96864430,imu_link,-0.0031724455766379833,0.0053957318887114525,0.0060230386443436154
1669803498.1036222,649,1669803498,103153394,imu_link,-0.002205368829891086,0.005155092105269432,0.0066950670443475255
1669803498.106513,650,1669803498,106277893,imu_link,0.003950317390263081,0.004784769844263793,0.009459248743951322
1669803498.1118755,651,1669803498,111562689,imu_link,0.0037156222388148308,0.007072076667100192,0.008863216266036034
1669803498.117051,652,1669803498,116849669,imu_link,0.0006221216754056514,0.004822745453566314,0.008925804868340492
1669803498.121978,653,1669803498,121228382,imu_link,0.0007838055607862772,0.007895389571785927,0.009000292979180815
1669803498.1272717,654,1669803498,126618092,imu_link,0.000581905187573284,0.005394221283495426,0.0018462473526597023
1669803498.1338923,655,1669803498,133087423,imu_link,0.0012934207916259766,0.003245481522753835,0.003629170823842287
1669803498.137084,656,1669803498,136277047,imu_link,0.0020906240679323673,0.0038176635280251503,0.009302803315222265
1669803498.1424925,657,1669803498,141681712,imu_link,0.0027589555829763412,0.00472664786502719,0.005332379601895809
1669803498.1485665,658,1669803498,148129814,imu_link,0.0024676711764186625,0.007077298127114773,0.006086370907723904
1669803498.1519117,659,1669803498,151334277,imu_link,0.002269473858177662,0.006365022156387568,0.007430465891957283
1669803498.1567473,660,1669803498,156558775,imu_link,0.002428119070827961,0.004942735657095909,0.0032849500421434645
1669803498.1621096,661,1669803498,161813316,imu_link,0.0034079027827829127,0.004175304435193539,0.0010706341126933696
1669803498.168647,662,1669803498,168098995,imu_link,0.0061072539538145065,0.006401528138667346,0.007867070846259596
1669803498.171495,663,1669803498,171187937,imu_link,0.004926304798573256,0.004593309946358204,0.0015452291117981078
1669803498.1769125,664,1669803498,176507489,imu_link,0.003738689469173551,0.004835436586290599,0.002101810183376074
1669803498.181995,665,1669803498,181751792,imu_link,0.0036492894869297747,0.0007398403249680996,0.00496805226430297
1669803498.1883545,666,1669803498,187988469,imu_link,0.0024907330516725783,-0.0010557344648987055,0.003997237421572208
1669803498.1913884,667,1669803498,191150730,imu_link,0.001889469800516963,-0.0005297354073263706,0.001251694280654192
1669803498.1967344,668,1669803498,196426230,imu_link,0.0017941014375537634,-0.0013627137523144484,0.0026546397712081675
1669803498.2023044,669,1669803498,201767848,imu_link,0.002902759239077568,-0.008245556615293028,0.003798300866037607
1669803498.208361,670,1669803498,208072814,imu_link,-0.002011663280427456,-0.006119904574006797,-0.003455578582361341
1669803498.2114086,671,1669803498,211188340,imu_link,-0.00046417218982242053,-0.005990267731249332,0.0023387323599308734
1669803498.2166624,672,1669803498,216433344,imu_link,-0.0018514632247388363,-0.0053316326811909676,0.005066402722150088
1669803498.2219872,673,1669803498,221672333,imu_link,-0.0021174380090087657,-0.00637472327798605,0.0016637138323858382
1669803498.2284086,674,1669803498,227947738,imu_link,-0.0013672029599547386,-0.0036790876183658843,0.0029943895060569052
1669803498.231407,675,1669803498,231100835,imu_link,0.001389536540955305,-0.0013589671580120923,0.008956344798207283
1669803498.236709,676,1669803498,236463650,imu_link,0.0010393821867182853,-0.0038310841191560034,0.0046484144404530525
1669803498.2421272,677,1669803498,241778689,imu_link,-0.0012472287053242328,-0.0013530284631997347,0.0028759224805980925
1669803498.248614,678,1669803498,247212715,imu_link,-0.004874167963862419,-0.0028349568601697688,0.004988903645426036
1669803498.2521966,679,1669803498,251556997,imu_link,-0.0038951565511524677,-0.0031553392764180903,-0.0031180577352643013
1669803498.2586875,680,1669803498,258074690,imu_link,-0.0032946565188467503,-0.0043138740584254265,-0.006846342701464892
1669803498.2619355,681,1669803498,261332683,imu_link,-0.0016465724911540747,-0.00037103591603226965,-0.0027947169728577137
1669803498.2675774,682,1669803498,266869177,imu_link,-0.0022120578214526176,-0.003868357511237264,-0.0031575507018715148
1669803498.272046,683,1669803498,271269999,imu_link,-0.0005468592862598599,-0.005790591239929199,-0.012270362116396429
1669803498.2772985,684,1669803498,276652582,imu_link,-0.0006199030322022737,-0.0064037865959107884,-0.010602913796901703
1669803498.2835135,685,1669803498,283072577,imu_link,0.0011339779011905193,-0.003618006827309728,-0.004349645227193832
1669803498.286444,686,1669803498,286199758,imu_link,0.0010714232921600342,-0.004144037608057261,-0.01008956413716078
1669803498.2918293,687,1669803498,291554560,imu_link,-0.0011488650925457478,-0.0038325486239045863,-0.011840473860502243
1669803498.2971995,688,1669803498,296867609,imu_link,-0.0018857644172385337,-0.0013209750177338722,-0.007886437699198723
1669803498.3033297,689,1669803498,303122091,imu_link,0.0016540733631700277,-0.008080859668552877,-0.016000881791114807
1669803498.3064942,690,1669803498,306236573,imu_link,-0.001958784181624651,-0.006280109751969577,-0.019507849588990215
1669803498.3117125,691,1669803498,311505087,imu_link,0.000919371610507369,-0.007797739002853633,-0.012949880212545395
1669803498.316999,692,1669803498,316718892,imu_link,-0.003424309194087982,-0.011004552245140076,-0.013665071688592436
1669803498.3232675,693,1669803498,323031606,imu_link,-0.004161860328167678,-0.009585961699485779,-0.02175642736256123
1669803498.326529,694,1669803498,326212384,imu_link,-0.0014133456861600282,-0.01160208135843277,-0.02158282697200775
1669803498.3318894,695,1669803498,331551977,imu_link,0.0008955563534982504,-0.01135769672691822,-0.015985200181603435
1669803498.3371086,696,1669803498,336732046,imu_link,0.0021159837488085036,-0.009530766867101194,-0.017484281212091446
1669803498.343228,697,1669803498,343001403,imu_link,-0.0008546048193238677,-0.0071234991773962975,-0.013326854445040228
1669803498.3484254,698,1669803498,348203651,imu_link,-0.002210566541180015,-0.009090498089790344,-0.01666618138551712
1669803498.351611,699,1669803498,351324248,imu_link,-0.004791505169123412,-0.010724378749728203,-0.021149205043911937
1669803498.3569274,700,1669803498,356644925,imu_link,-0.007818649522960188,-0.011704842559993269,-0.017432138323783875
1669803498.3634045,701,1669803498,363017448,imu_link,-0.006505909841507674,-0.013675494119524956,-0.013706105761229994
1669803498.366444,702,1669803498,366220138,imu_link,-0.0027925041504204273,-0.010807099752128126,-0.014344575814902784
1669803498.3717465,703,1669803498,371445238,imu_link,-0.0005908595048822464,-0.00957326777279377,-0.012836591340601446
1669803498.3773048,704,1669803498,376815038,imu_link,-0.008686572313308716,-0.013652453199028969,-0.014854994602501394
1669803498.3819668,705,1669803498,381187985,imu_link,-0.003289438551291824,-0.009232791140675545,-0.013246362097561361
1669803498.3874075,706,1669803498,386676687,imu_link,-0.007072091102600098,-0.01247003208845854,-0.018633907660841945
1669803498.3940134,707,1669803498,393205419,imu_link,-0.002880414016544819,-0.005774164106696845,-0.012738270685076714
1669803498.3971515,708,1669803498,396486827,imu_link,-0.0018365250434726477,-0.008667238056659698,-0.014352076686918737
1669803498.4027767,709,1669803498,401939521,imu_link,-0.006248782854527236,-0.006278559565544128,-0.02384336851537228
1669803498.406634,710,1669803498,406210412,imu_link,-0.003714893246069551,-0.006156350485980511,-0.018280014395713806
1669803498.412297,711,1669803498,411593257,imu_link,-0.006309124641120434,-0.0010594410123303535,-0.010906923562288284
1669803498.417257,712,1669803498,416882020,imu_link,-0.005928437691181899,-0.0029869421850889926,-0.010433787479996681
1669803498.4236317,713,1669803498,423185879,imu_link,-0.007435671519488097,-0.00528024323284626,-0.015336277894675733
1669803498.4266381,714,1669803498,426402157,imu_link,-0.005916585214436054,-0.00786556024104357,-0.01486910227686167
1669803498.4318786,715,1669803498,431699847,imu_link,-0.005418032873421908,-0.005041846074163914,-0.010759380646049978
1669803498.4383473,716,1669803498,438038693,imu_link,-0.007848445326089859,-0.007644308730959892,-0.016212457790970806
1669803498.4435146,717,1669803498,443273380,imu_link,-0.006640691775828601,-0.008426595479249954,-0.014878080226480963
1669803498.4474316,718,1669803498,446622183,imu_link,-0.007887196727097036,-0.01261155679821968,-0.014867663383483887
1669803498.4537704,719,1669803498,453205321,imu_link,-0.012220429256558418,-0.009276722557842733,-0.01948625221848488
1669803498.456944,720,1669803498,456370348,imu_link,-0.0083915526047349,-0.013307417742908003,-0.019676297903060913
1669803498.462502,721,1669803498,461735569,imu_link,-0.010201318189501762,-0.013168898411095144,-0.01480058953166008
1669803498.4690459,722,1669803498,468278878,imu_link,-0.010854670777916908,-0.012323341332376005,-0.02088248543441296
1669803498.4720566,723,1669803498,471492822,imu_link,-0.011814409866929054,-0.01081295032054186,-0.016609609127044678
1669803498.477444,724,1669803498,476918341,imu_link,-0.004924746695905925,-0.011170745827257635,-0.014004072174429893
1669803498.482041,725,1669803498,481352150,imu_link,-0.004905512090772391,-0.014572564512491226,-0.020752111449837688
1669803498.487756,726,1669803498,486950905,imu_link,-0.0022157831117510796,-0.012819550000131132,-0.022125946357846264
1669803498.491846,727,1669803498,491248468,imu_link,-0.0038825275842100386,-0.012192148715257645,-0.017219765111804012
1669803498.4975,728,1669803498,496790556,imu_link,0.0011758004548028114,-0.013490042649209501,-0.015991903841495514
1669803498.5039988,729,1669803498,503364867,imu_link,-0.0002667119551915676,-0.01061706431210041,-0.02080873213708401
1669803498.5072477,730,1669803498,506603713,imu_link,-0.003332580905407667,-0.010437528602778913,-0.01753197051584721
1669803498.5126855,731,1669803498,512010063,imu_link,-0.0018469728529453278,-0.010862936265766622,-0.017058115452528
1669803498.5180542,732,1669803498,516500384,imu_link,-0.002641974948346615,-0.007143594324588776,-0.02142192237079144
1669803498.5227625,733,1669803498,521963091,imu_link,-0.004244582261890174,-0.008485488593578339,-0.01594125665724278
1669803498.5267372,734,1669803498,526254421,imu_link,-0.0036716745235025883,-0.012409684248268606,-0.015000998042523863
1669803498.5321057,735,1669803498,531567116,imu_link,-0.002939181169494987,-0.011190799996256828,-0.02502277679741383
1669803498.5372763,736,1669803498,536878306,imu_link,-0.00038083293475210667,-0.013347059488296509,-0.013414676301181318
1669803498.5435295,737,1669803498,543187488,imu_link,-0.003271543886512518,-0.010488175787031652,-0.00977591797709465
1669803498.546534,738,1669803498,546291239,imu_link,0.0006772064371034503,-0.017984190955758098,-0.016973191872239116
1669803498.5517862,739,1669803498,551530861,imu_link,-0.003032384440302849,-0.013458694331347944,-0.013766475021839142
1669803498.5578372,740,1669803498,557010422,imu_link,-0.0010520668001845481,-0.011966352351009847,-0.009313255548477173
1669803498.561839,741,1669803498,561283797,imu_link,-0.0018499233992770316,-0.013139117509126663,-0.009959178976714613
1669803498.567312,742,1669803498,566755492,imu_link,-0.0062554869800806046,-0.01641507260501385,-0.011079843156039717
1669803498.5736132,743,1669803498,573154345,imu_link,-0.003135941457003355,-0.013707586564123632,-0.008924303576350212
1669803498.5766075,744,1669803498,576268428,imu_link,-0.0015123994089663029,-0.0190146341919899,-0.012769552879035475
1669803498.5819752,745,1669803498,581607267,imu_link,-0.005981231573969127,-0.020617980509996414,-0.017441110685467724
1669803498.5872781,746,1669803498,586949994,imu_link,-0.0016935341991484165,-0.020340835675597194,-0.012360510416328909
1669803498.591574,747,1669803498,591240344,imu_link,-0.002256737789139152,-0.022100642323493958,-0.015540448017418386
1669803498.5970724,748,1669803498,596719890,imu_link,-0.008487746119499207,-0.020345259457826614,-0.01913833059370518
1669803498.6035497,749,1669803498,603183710,imu_link,-0.003781902370974422,-0.020418372005224228,-0.016616968438029293
1669803498.6066473,750,1669803498,606327884,imu_link,-0.006353795528411865,-0.016518672928214077,-0.01246412191540003
1669803498.61194,751,1669803498,611663931,imu_link,-0.009234154596924782,-0.0170037504285574,-0.02033562958240509
1669803498.61846,752,1669803498,618144932,imu_link,-0.006526678800582886,-0.017762228846549988,-0.01989749260246754
1669803498.6215467,753,1669803498,621285528,imu_link,-0.010667681694030762,-0.02131915651261807,-0.01955251395702362
1669803498.6270108,754,1669803498,626684928,imu_link,-0.010812809690833092,-0.021500905975699428,-0.027401825413107875
1669803498.6325002,755,1669803498,632107110,imu_link,-0.006797139532864094,-0.022402470931410793,-0.03046240657567978
1669803498.637914,756,1669803498,636462416,imu_link,-0.011526084505021574,-0.015766808763146404,-0.02621864527463913
1669803498.6425838,757,1669803498,641897519,imu_link,-0.00883185025304556,-0.020469047129154205,-0.028526009991765026
1669803498.6471741,758,1669803498,646340126,imu_link,-0.01098750624805689,-0.018188990652561188,-0.03196673095226288
1669803498.6525567,759,1669803498,651713563,imu_link,-0.011982109397649765,-0.016780884936451915,-0.029614564031362534
1669803498.6591082,760,1669803498,658222093,imu_link,-0.013397689908742905,-0.014386432245373726,-0.029852172359824184
1669803498.6622999,761,1669803498,661455515,imu_link,-0.012532707303762436,-0.020354283973574642,-0.036706723272800446
1669803498.6675296,762,1669803498,666892835,imu_link,-0.016943445429205898,-0.0158420130610466,-0.03362748771905899
1669803498.671675,763,1669803498,671227944,imu_link,-0.015120906755328178,-0.020464723929762844,-0.03785332292318344
1669803498.6768205,764,1669803498,676476206,imu_link,-0.012983420863747597,-0.021823536604642868,-0.042062964290380485
