Time,header.seq,header.stamp.secs,header.stamp.nsecs,header.frame_id,vector.x,vector.y,vector.z
1669803320.4233265,250,1669803320,423047544,imu_link,0.0031903439667075877,-0.004760167095810176,0.003019728697836399
1669803320.4285831,251,1669803320,428319850,imu_link,-0.0012211609864607456,-0.005975361913442612,-0.0009752906044013799
1669803320.4327455,252,1669803320,432516182,imu_link,0.0019550265278667216,-0.0012762851547449827,-0.0031642643734812737
1669803320.43854,253,1669803320,437836404,imu_link,0.005406887736171485,-0.002440814860165119,-0.002379708224907518
1669803320.4441996,254,1669803320,443482743,imu_link,0.007985529489815237,-0.0008717241580598057,0.0008553488878533244
1669803320.4483,255,1669803320,447699934,imu_link,0.005406887736171485,0.0006250995211303234,-0.002586096758022905
1669803320.4540465,256,1669803320,452976239,imu_link,0.0026427260600030422,-0.001005837111733854,-0.0029072088655084376
1669803320.4588504,257,1669803320,458430711,imu_link,0.0009649021085351706,-0.009232726879417898,-0.007461044006049633
1669803320.463163,258,1669803320,462733537,imu_link,0.0007004162762314081,-0.00625182781368494,-0.012411897070705892
1669803320.468313,259,1669803320,467999850,imu_link,0.0013969915453344584,-0.006205562036484481,-0.013123465701937675
1669803320.4736636,260,1669803320,473348057,imu_link,0.0008821219671517611,-0.0018961302703246476,-0.013481088913977148
1669803320.4778197,261,1669803320,477614563,imu_link,-0.001001342199742794,-0.004627552349120379,-0.007826093584299088
1669803320.4831161,262,1669803320,482844511,imu_link,-0.00028757032123394316,-0.004334713798016311,-0.013615947216749191
1669803320.4883165,263,1669803320,488060029,imu_link,0.0017367973923683167,-0.0014595600077882411,-0.013124935328960419
1669803320.4934947,264,1669803320,493307538,imu_link,-0.0019386161584407091,-0.0034630361478775744,-0.013314192183315756
1669803320.4982853,265,1669803320,497714351,imu_link,-0.0029727830551564693,-0.004860021639615298,-0.010082865133881569
1669803320.5037205,266,1669803320,503067321,imu_link,-0.002574152080342174,-0.0029765150975435977,-0.007831308990716934
1669803320.5082889,267,1669803320,507601493,imu_link,-0.0029221423901617527,-0.006469351705163718,-0.007372329942882061
1669803320.513864,268,1669803320,513017347,imu_link,0.00040974252624437213,-0.005994708742946387,-0.011321919970214369
1669803320.5191417,269,1669803320,518395249,imu_link,-0.00019968532433267686,-0.0034831492230296135,-0.007240472827106715
1669803320.5235374,270,1669803320,522854495,imu_link,-0.0023551308549940586,-0.0015757905784994364,-0.0014275355497375133
1669803320.5286112,271,1669803320,528154079,imu_link,-0.0007785792695358396,-0.005226564127951861,-0.004363830201327801
1669803320.5330923,272,1669803320,532616374,imu_link,-0.001136203412897885,-0.0061295777559280396,-0.01573488861322403
1669803320.5385158,273,1669803320,537955735,imu_link,-1.4857093901810003e-06,-0.0020362248178571467,-0.010301921516656876
1669803320.5435405,274,1669803320,543233475,imu_link,-0.0015608902322128417,-0.004894295241683722,-0.005510443821549416
1669803320.548925,275,1669803320,548568531,imu_link,0.0006273591425269842,-0.005833808798342944,-0.012304630130529404
1669803320.553069,276,1669803320,552779680,imu_link,-0.001170463743619621,-0.002150233369320631,-0.008342420682311058
1669803320.5583103,277,1669803320,558058913,imu_link,0.0008947825990617275,-0.0048197763971984395,-0.007246442139148712
1669803320.5636857,278,1669803320,563397007,imu_link,0.003462294116616249,-0.0034294859506189823,-0.011379276402294638
1669803320.5678754,279,1669803320,567623260,imu_link,0.00044481529039330786,-0.0016667149029672146,-0.007779892068356276
1669803320.5731838,280,1669803320,572941785,imu_link,0.001283732708543539,-0.0038087542634457354,-0.0053569576703012
1669803320.5792348,281,1669803320,578488945,imu_link,0.0023074450436979537,-0.004053114913403988,-0.00846534874290228
1669803320.583394,282,1669803320,582937693,imu_link,0.00035618300898931926,0.0009380682022310794,-0.012367213144898415
1669803320.588709,283,1669803320,588322764,imu_link,0.0005595421534962953,-0.0032104412093758583,-0.007332868408411742
1669803320.5931997,284,1669803320,592619719,imu_link,-0.00045221729669719934,-0.005047018174082042,-0.012715910561382772
1669803320.5983713,285,1669803320,597920017,imu_link,0.00021455538808368146,0.00015427185280714187,-0.014138966798782349
1669803320.6036558,286,1669803320,603336259,imu_link,-0.00040605154936201876,-0.001473009469918907,-0.014428790658712387
1669803320.6078746,287,1669803320,607598562,imu_link,0.003971153870224953,-0.0011585470056161287,-0.010886047035455704
1669803320.6132736,288,1669803320,612925466,imu_link,-0.004497928079217673,0.0009134593419730663,-0.012163812294602394
1669803320.6185126,289,1669803320,618300572,imu_link,0.00016166326531674716,-0.003001831006258726,-0.011490288190543653
1669803320.6227744,290,1669803320,622578485,imu_link,0.0009015206596814097,-0.006406011525541545,-0.012221185490489006
1669803320.627988,291,1669803320,627772828,imu_link,-0.0023640634026378398,-0.0020168297924101353,-0.012958803214132788
1669803320.633273,292,1669803320,632947148,imu_link,-0.002538415370509029,-0.0006005349569022655,-0.012210756540298462
1669803320.6384823,293,1669803320,638238939,imu_link,-0.005695996340364219,-0.0030145705677568913,-0.013911700807511808
1669803320.6437697,294,1669803320,643468826,imu_link,-0.0013664274010807276,0.0019035970326513052,-0.012236096896231176
1669803320.6479192,295,1669803320,647646719,imu_link,-0.001990728545933962,0.002343195723369718,-0.014302145689725876
1669803320.6531737,296,1669803320,652861860,imu_link,-0.0029153933282941584,-0.003258154261857271,-0.01727566123008728
1669803320.658301,297,1669803320,658120538,imu_link,-0.0035405787639319897,-0.003953320439904929,-0.02041531726717949
1669803320.6637676,298,1669803320,663437427,imu_link,-0.0023081395775079727,-0.0033810618333518505,-0.01898334734141827
1669803320.668495,299,1669803320,667774940,imu_link,-0.0032030148431658745,-0.004100839141756297,-0.015206625685095787
1669803320.673756,300,1669803320,673091795,imu_link,-0.0012330838944762945,-0.005037408787757159,-0.01832319609820843
1669803320.6787465,301,1669803320,678367994,imu_link,-0.004403218161314727,-0.005769756622612476,-0.017228735610842708
1669803320.684036,302,1669803320,683641830,imu_link,-0.002248619915917516,-0.0029854166787117724,-0.01561865396797657
1669803320.688052,303,1669803320,687817110,imu_link,-0.006520041730254889,-0.0045181093737483025,-0.017212299630045894
1669803320.6933963,304,1669803320,693091912,imu_link,-0.004514331929385662,-0.004290094133466483,-0.017376227304339412
1669803320.6990092,305,1669803320,698404199,imu_link,-0.002885639434680343,-0.004488211125135422,-0.018984084948897365
1669803320.7035491,306,1669803320,702832636,imu_link,-0.0032007645349949603,-0.007982564158737661,-0.022204216569662094
1669803320.708649,307,1669803320,708177589,imu_link,-0.0035814382135868073,-0.0021248233970254664,-0.025060787796974182
1669803320.7140324,308,1669803320,713497530,imu_link,-0.0053249541670084,-0.004310957621783019,-0.021668510511517528
1669803320.7180305,309,1669803320,717732275,imu_link,-0.0039003568235784773,-0.004766832105815411,-0.019723197445273403
1669803320.7232766,310,1669803320,722967355,imu_link,-0.002127113752067089,-0.0008954808581620455,-0.016953060403466228
1669803320.72848,311,1669803320,728248595,imu_link,-0.0014231441309675576,-0.0010795735288411379,-0.019198654219508175
1669803320.7337594,312,1669803320,733543888,imu_link,-0.002448966028168798,-6.332922203000635e-05,-0.02053380385041237
1669803320.7379236,313,1669803320,737735159,imu_link,-0.0011145648313686254,0.0023119128309190273,-0.020079320296645168
1669803320.743116,314,1669803320,742933135,imu_link,-0.003936899825930595,0.00038894033059477806,-0.02161115221679211
1669803320.7484903,315,1669803320,748169409,imu_link,-0.003507761983200908,-0.0005557590629905462,-0.015597785823047163
1669803320.7537756,316,1669803320,753464758,imu_link,-0.002261953661218286,-0.0036999336443841457,-0.017155718058347702
1669803320.7578633,317,1669803320,757659025,imu_link,-0.003282043850049377,-0.0032067792490124702,-0.02016200311481953
1669803320.762988,318,1669803320,762801436,imu_link,-0.0035896264016628265,-0.0017688069492578506,-0.024028128013014797
1669803320.7683318,319,1669803320,768094658,imu_link,0.0008486129809170961,-0.001995272701606155,-0.015589594841003418
1669803320.7735603,320,1669803320,773377802,imu_link,-0.005103676579892635,0.0005766999092884363,-0.01440792251378298
1669803320.7777946,321,1669803320,777558496,imu_link,-0.0029556390363723044,0.00015867556794546545,-0.016716869547963146
1669803320.7831247,322,1669803320,782888983,imu_link,-0.003973404876887798,0.004171556793153286,-0.016630446538329128
1669803320.7886302,323,1669803320,788276893,imu_link,-0.002979531651362777,-0.0013314303942024708,-0.019034737721085552
1669803320.7932143,324,1669803320,792753517,imu_link,0.0028476156294345856,0.0036157786380499606,-0.017037985846400264
1669803320.7982972,325,1669803320,797928964,imu_link,0.0006057022255845369,-0.0001273458474315703,-0.013275449164211752
1669803320.8033676,326,1669803320,803216202,imu_link,-0.0028796403203159575,3.574770016712137e-05,-0.013867024332284927
1669803320.8086824,327,1669803320,808485190,imu_link,-0.0030346557032316927,0.002472813706845045,-0.019140543416142467
1669803320.8129008,328,1669803320,812697316,imu_link,-0.002426690421998501,0.0007808011141605676,-0.015636531636118892
1669803320.8182123,329,1669803320,817921766,imu_link,-0.0005312396679073572,-0.00043654485489241784,-0.013115258887410164
1669803320.823393,330,1669803320,823205268,imu_link,-0.0015765581047162416,0.0032841886859387164,-0.015169385820627213
1669803320.8290284,331,1669803320,828630773,imu_link,-0.00305100716650486,0.004052377771586181,-0.02043992280960083
1669803320.8335385,332,1669803320,832723397,imu_link,-0.0020153929945081477,-0.0019021823536604643,-0.02229958027601242
1669803320.8387165,333,1669803320,838134262,imu_link,-0.0032662958838045597,-0.001898526796139777,-0.025790177285671234
1669803320.844204,334,1669803320,843553518,imu_link,-0.0007882339996285738,0.0006333424826152624,-0.025238096714019775
1669803320.8483174,335,1669803320,847781789,imu_link,-0.003059176960960031,0.0014423835091292858,-0.018055746331810955
1669803320.8534875,336,1669803320,853132676,imu_link,-0.004130576271563769,0.00014752030256204307,-0.02744124084711075
1669803320.8587615,337,1669803320,858471657,imu_link,-0.002752958796918392,1.1942302990064492e-05,-0.0267125703394413
1669803320.8629944,338,1669803320,862675311,imu_link,-0.0019497857429087162,0.00032560451654717326,-0.021529203280806545
1669803320.86832,339,1669803320,867918972,imu_link,-2.8248821763554588e-05,0.0029668242204934363,-0.025901198387145996
1669803320.8736413,340,1669803320,873162081,imu_link,-0.0032090749591588974,0.0024914096575230364,-0.02432762645184994
1669803320.8787096,341,1669803320,878469238,imu_link,-0.002939923899248243,0.0022739036940038204,-0.02337322570383549
1669803320.8829448,342,1669803320,882690957,imu_link,-0.006836742162704468,0.0031739668920636177,-0.023002153262495998
1669803320.8880029,343,1669803320,887839931,imu_link,-0.004716121591627598,0.0046520992182195195,-0.026972614228725433
1669803320.8934686,344,1669803320,893165950,imu_link,-0.003978581167757511,0.003997309599071742,-0.021631265059113506
1669803320.8989155,345,1669803320,898454590,imu_link,-0.0038735102862119675,0.001224969397298992,-0.024271011352539062
1669803320.9030042,346,1669803320,902664648,imu_link,-0.002434026682749391,0.004243794362992049,-0.026084501296281815
1669803320.908204,347,1669803320,907901021,imu_link,-0.006743518169969321,0.006527465768158436,-0.02353116683661938
1669803320.9138112,348,1669803320,913318684,imu_link,-0.005117043852806091,0.004294541198760272,-0.02566054649651051
1669803320.9189692,349,1669803320,918581164,imu_link,-0.006049875169992447,0.004863683599978686,-0.021813079714775085
1669803320.9230921,350,1669803320,922832418,imu_link,-0.004691688343882561,0.005539462901651859,-0.01975968293845654
1669803320.9290059,351,1669803320,928259074,imu_link,-0.0031195166520774364,0.007670356426388026,-0.016964241862297058
1669803320.9344904,352,1669803320,933650209,imu_link,-0.004178400617092849,0.005356954410672188,-0.019472818821668625
1669803320.9386995,353,1669803320,937986693,imu_link,-0.007483275141566993,0.005679521709680557,-0.02253656275570393
1669803320.9442503,354,1669803320,943376721,imu_link,-0.009097851812839508,0.00982213020324707,-0.017033526673913005
1669803320.9483953,355,1669803320,947659023,imu_link,-0.007110822945833206,0.006766624283045531,-0.013148041442036629
1669803320.9536645,356,1669803320,953010216,imu_link,-0.011105868034064771,0.007022869773209095,-0.012014806270599365
1669803320.9593182,357,1669803320,958362060,imu_link,-0.006127324886620045,0.0029191158246248965,-0.012820234522223473
1669803320.9633293,358,1669803320,962670828,imu_link,-0.009286465123295784,0.005058924667537212,-0.0104605695232749
1669803320.9684925,359,1669803320,967966170,imu_link,-0.007133168168365955,0.006741319317370654,-0.010398764163255692
1669803320.9737444,360,1669803320,973333925,imu_link,-0.00926776695996523,0.00703787337988615,-0.005584158934652805
1669803320.978876,361,1669803320,978585543,imu_link,-0.006105748936533928,0.007193539757281543,-0.002808118239045143
1669803320.9833872,362,1669803320,982892016,imu_link,-0.006060305517166854,0.004515781532973052,-0.004426402971148491
1669803320.988396,363,1669803320,988173334,imu_link,-0.008686614222824575,0.0047914981842041016,-0.004541879054158927
1669803320.9937654,364,1669803320,993520350,imu_link,-0.003921240568161011,0.004181270953267814,0.0028379207942634825
1669803320.998147,365,1669803320,997856403,imu_link,-0.007404400035738945,0.0034138390328735117,0.005212421528995037
1669803321.0036614,366,1669803321,3261304,imu_link,-0.003100941888988018,0.006581851281225681,0.0032655645627528433
1669803321.0088823,367,1669803321,8607664,imu_link,-0.004580614622682334,0.0020846864208579063,0.008082388900220396
1669803321.0132082,368,1669803321,12787948,imu_link,-0.003442922374233604,0.001489392714574933,0.0070184376090765
1669803321.018525,369,1669803321,18105900,imu_link,0.00018776023352984342,-5.512876668944955e-05,0.009207430295646192
1669803321.0237343,370,1669803321,23339578,imu_link,-0.0009089651866815985,-0.0008791532018221916,0.008884072303771973
1669803321.028935,371,1669803321,28612918,imu_link,6.0351943830028176e-05,-0.002153996611014009,0.010218463838100433
1669803321.0330734,372,1669803321,32811294,imu_link,-0.001212971517816186,0.0005923358839936556,0.008150932379066946
1669803321.038368,373,1669803321,38112843,imu_link,-0.0015645999228581788,0.0031441194005310535,0.011242193169891836
1669803321.0441425,374,1669803321,43511707,imu_link,-0.001962512731552124,0.000631802948191762,0.015427914448082449
1669803321.048407,375,1669803321,47831097,imu_link,-0.0031180849764496092,-0.002592842560261488,0.010998533107340338
1669803321.0536017,376,1669803321,53142370,imu_link,0.00190288620069623,-9.76092924247496e-05,0.005169955547899009
1669803321.0591536,377,1669803321,58506155,imu_link,0.0007026001112535596,-0.0055305841378867635,0.009136637672781944
1669803321.0630586,378,1669803321,62640323,imu_link,0.00034570833668112755,-0.002451250795274973,0.0057928222231566915
1669803321.0687485,379,1669803321,68064833,imu_link,0.003110630437731743,0.0012464773608371618,0.006765866652131081
1669803321.0742826,380,1669803321,73548608,imu_link,0.005070138722658157,0.0016518026823177936,0.014033907093107702
1669803321.0783956,381,1669803321,77849333,imu_link,0.0011853729374706745,0.0019639960955828433,0.011233983561396599
1669803321.0835872,382,1669803321,83203119,imu_link,0.0015087455976754427,0.0022433754056692123,0.002876662882044912
1669803321.0887136,383,1669803321,88469611,imu_link,-0.0008597419364377856,-0.00027120680897496646,0.00799298845231533
1669803321.0929224,384,1669803321,92658538,imu_link,0.0015213803853839636,0.0006198327173478902,0.013136870227754118
1669803321.0980818,385,1669803321,97887055,imu_link,-0.0012286024866625669,-0.0016272098291665316,0.009775905869901182
1669803321.1036177,386,1669803321,103220015,imu_link,0.0005163212772458792,-0.00040901394095271826,0.008533152751624586
1669803321.1087143,387,1669803321,108443911,imu_link,-0.0018574480200186374,-0.002291808370500803,0.007561587262898684
1669803321.11321,388,1669803321,112813641,imu_link,-0.0023514232598245144,-7.973450556164609e-05,0.005521617364138366
1669803321.11884,389,1669803321,118236919,imu_link,-0.0025682321283966307,-0.0025048679672181606,0.001992285950109363
1669803321.1245148,390,1669803321,123729830,imu_link,-0.0023767400998622183,0.0006899157888256014,0.0035114572383463383
1669803321.1285641,391,1669803321,127991769,imu_link,-0.0012308439472690227,-0.00012963564950041473,0.0034451459068804984
1669803321.1338289,392,1669803321,133376936,imu_link,-0.008647894486784935,0.0026330214459449057,-0.0015176719753071668
1669803321.1379232,393,1669803321,137589152,imu_link,-0.005114075727760792,-0.0021442796569317584,-0.0030882698483765125
1669803321.1430552,394,1669803321,142788507,imu_link,-0.004810841288417579,0.0019654838833957915,0.0018313303589820862
1669803321.1483023,395,1669803321,148034730,imu_link,-0.006381425540894271,0.0019334189128130674,-0.0004693866067100317
1669803321.1534863,396,1669803321,153252472,imu_link,-0.005687772296369076,-0.0006891855155117811,0.0030651695560663943
1669803321.1587112,397,1669803321,158522260,imu_link,-0.007841743528842926,-0.0008046627626754345,-0.003491324372589588
1669803321.1630046,398,1669803321,162723163,imu_link,-0.007828327827155592,-0.001190581941045821,-0.0032708076760172844
1669803321.1682835,399,1669803321,167935032,imu_link,-0.0030852949712425475,0.0014469076413661242,-0.0019527788972482087
1669803321.1742628,400,1669803321,173518072,imu_link,-0.006113199517130852,0.00046267852303572004,0.0015124772908166053
1669803321.1785095,401,1669803321,177818178,imu_link,-0.005199003033339977,-0.0006005502655170859,-0.004834691062569618
1669803321.183969,402,1669803321,183201609,imu_link,-0.004700582940131427,-0.0016659124521538617,-0.009647758677601814
1669803321.189226,403,1669803321,188603045,imu_link,-0.004440560471266509,-0.006044624373316765,-0.009191050194203855
1669803321.1934528,404,1669803321,192862753,imu_link,-0.005593143403530121,-0.005573044065386058,-0.005248936358839274
1669803321.1986072,405,1669803321,198201017,imu_link,-0.005485114641487598,-0.002931857714429498,-0.006643662229180336
1669803321.204156,406,1669803321,203579697,imu_link,-0.0061944108456373215,-0.0045187752693891525,-0.0047572017647326
1669803321.2084377,407,1669803321,207879699,imu_link,-0.003178365994244814,-0.008340925909578802,-0.00689926091581583
1669803321.213698,408,1669803321,213234598,imu_link,-0.003853459842503071,-0.007291159126907588,-0.008047345094382765
1669803321.2191389,409,1669803321,218706881,imu_link,-0.0037006956990808253,-0.010219231247901917,-0.00806300435215235
1669803321.2234368,410,1669803321,223018103,imu_link,0.000728670449461788,-0.006593741942197085,-0.005751872435212135
1669803321.228857,411,1669803321,228460093,imu_link,-0.003965194802731276,-0.0077418796718120575,-0.006643707398325206
1669803321.2330046,412,1669803321,232736326,imu_link,-0.0017918397206813097,-0.007097447756677867,-0.010197599418461325
1669803321.2385235,413,1669803321,238066675,imu_link,-0.00014527401071973145,-0.004319088999181987,-0.008334225043654442
1669803321.2435784,414,1669803321,243316537,imu_link,-0.000186237070010975,-0.003264808561652899,-0.011279444210231306
1669803321.2490277,415,1669803321,248577784,imu_link,-0.0008538440451957286,-0.008763369172811508,-0.013668094761669638
1669803321.2531605,416,1669803321,252912862,imu_link,0.0004984175902791322,-0.00550153199583292,-0.008307382464408875
1669803321.2588668,417,1669803321,258297679,imu_link,0.00016235586372204125,-0.007361909840255977,-0.01269877701997757
1669803321.2636738,418,1669803321,263452771,imu_link,0.0008716814918443561,-0.008969031274318695,-0.017675751820206646
1669803321.2679107,419,1669803321,267732005,imu_link,-0.002018376020714641,-0.005812943913042545,-0.010483709163963796
1669803321.2732482,420,1669803321,272966122,imu_link,-0.0029601166024804115,-0.001823146245442331,-0.007098915521055461
1669803321.2785294,421,1669803321,278234875,imu_link,-0.0012315837666392326,-0.002545802621170879,-0.012071441859006882
1669803321.2837873,422,1669803321,283474433,imu_link,-0.003948056604713202,-0.0033341066446155314,-0.01110510341823101
1669803321.2879596,423,1669803321,287759856,imu_link,-0.0046804831363260755,-0.0045061251148581505,-0.010405461303889753
1669803321.2934868,424,1669803321,293020176,imu_link,-0.00466559175401926,-0.006153434049338103,-0.01293791923671961
1669803321.2985845,425,1669803321,298322850,imu_link,-0.007262109313160182,-0.005809256806969643,-0.011874699033796789
1669803321.3039005,426,1669803321,303670949,imu_link,-0.0028043605852872138,-0.007111597340554,-0.008338687941432
1669803321.3082874,427,1669803321,307896202,imu_link,-0.006697266362607479,-0.009705129079520704,-0.01302364282310009
1669803321.3134513,428,1669803321,313171731,imu_link,-0.004711017943918705,-0.0030055053066462283,-0.01725406385958195
1669803321.3188543,429,1669803321,318579866,imu_link,-0.0041730972006917,-0.004267716314643622,-0.009576953947544098
1669803321.323206,430,1669803321,322905247,imu_link,-0.006425353232771159,-0.0006027875351719559,-0.010318325832486153
1669803321.328414,431,1669803321,328152912,imu_link,-0.0015012914082035424,0.001224864972755313,-0.010487441904842855
1669803321.3338966,432,1669803321,333571815,imu_link,-0.0066667753271758565,-0.0016160188242793083,-0.015097858384251595
1669803321.3379598,433,1669803321,337734191,imu_link,-0.00893619190901518,-0.003458514343947172,-0.013692709617316725
1669803321.3435762,434,1669803321,343208691,imu_link,-0.008073504082858564,-0.0005096423556096853,-0.015119433403015137
1669803321.34925,435,1669803321,348646171,imu_link,-0.006640656851232052,0.0008076410158537329,-0.013546666130423546
1669803321.3536186,436,1669803321,353009851,imu_link,-0.008370718918740751,0.007159274071455002,-0.014499574899673462
1669803321.3586416,437,1669803321,358275500,imu_link,-0.007349984254688025,0.003557654097676277,-0.019011655822396282
1669803321.3639307,438,1669803321,363666032,imu_link,-0.013021328486502172,0.006261487025767566,-0.019840922206640244
1669803321.368179,439,1669803321,367916554,imu_link,-0.006118412129580975,0.007719602901488543,-0.01347881555557251
1669803321.3735614,440,1669803321,373320989,imu_link,-0.012684592045843603,0.008978663012385368,-0.018513236194849014
1669803321.3778703,441,1669803321,377567757,imu_link,-0.007893131114542486,0.009998641908168793,-0.018742708489298824
1669803321.3835876,442,1669803321,382913713,imu_link,-0.009738673456013204,0.010869703255593778,-0.018442384898662567
1669803321.3887296,443,1669803321,388267612,imu_link,-0.007063095457851887,0.01187995169311762,-0.0204324908554554
1669803321.3938377,444,1669803321,393541028,imu_link,-0.012534834444522858,0.013399864546954634,-0.01867787726223469
1669803321.3981588,445,1669803321,397855900,imu_link,-0.007484103552997112,0.009533041156828405,-0.013777604326605797
1669803321.4034095,446,1669803321,403141221,imu_link,-0.004382438026368618,0.012290475890040398,-0.01623705215752125
1669803321.4088492,447,1669803321,408513539,imu_link,-0.009479387663304807,0.0166759192943573,-0.021029980853199962
1669803321.413711,448,1669803321,412850902,imu_link,-0.007554124109447002,0.01365319360047579,-0.01717806421220303
1669803321.4188697,449,1669803321,418269608,imu_link,-0.00785720068961382,0.014101050794124603,-0.016247501596808437
1669803321.4245338,450,1669803321,423786485,imu_link,-0.00490619381889701,0.017759984359145168,-0.0185072124004364
1669803321.4284163,451,1669803321,427991100,imu_link,-0.00364858633838594,0.02059110254049301,-0.017342796549201015
1669803321.4340894,452,1669803321,433399108,imu_link,-0.008378145284950735,0.013544416055083275,-0.016307100653648376
1669803321.437822,453,1669803321,437597521,imu_link,-0.006730853114277125,0.013057155534625053,-0.015677506104111675
1669803321.4430194,454,1669803321,442791403,imu_link,-0.004892007913440467,0.014937683008611204,-0.011599069461226463
1669803321.4486938,455,1669803321,448217243,imu_link,-0.0028818235732614994,0.013271757401525976,-0.006973695941269398
1669803321.4541256,456,1669803321,453524612,imu_link,-0.004393656738102436,0.010438273660838606,-0.007783581968396903
1669803321.4580202,457,1669803321,457776888,imu_link,-0.003896580543369055,0.014060004614293577,-0.007638349197804928
1669803321.4635334,458,1669803321,463183829,imu_link,-0.003535293741151691,0.012881278060376646,-0.004474171437323093
1669803321.4693463,459,1669803321,468685981,imu_link,-0.0024482493754476313,0.016295161098241806,-0.0011310823028907182
1669803321.4737363,460,1669803321,473086498,imu_link,-0.0038131834007799625,0.012847793288528921,-0.0023581010755151515
1669803321.4787283,461,1669803321,478418248,imu_link,-0.002347701927646995,0.013105567544698715,0.00125765020493418
1669803321.4829996,462,1669803321,482711177,imu_link,-0.0028677559457719326,0.013485545292496681,0.001546755316667259
1669803321.4883764,463,1669803321,487960814,imu_link,-0.0041700731962919235,0.00997335370630026,0.00031295325607061386
1669803321.4936938,464,1669803321,493314270,imu_link,-0.008074929937720299,0.011260812170803549,-0.0006333351484499873
1669803321.4981437,465,1669803321,497748757,imu_link,-0.004315395373851062,0.01094863936305046,0.004766095895320178
1669803321.5032344,466,1669803321,502962708,imu_link,-0.003693265374749899,0.01294463500380516,-0.0012427835026755931
1669803321.508502,467,1669803321,508253075,imu_link,-0.00560284173116088,0.01152006909251213,-0.004863776732236148
1669803321.5147145,468,1669803321,513712159,imu_link,-0.0015444718301296234,0.011255583725869657,0.005338371265679599
1669803321.5186052,469,1669803321,518063719,imu_link,-0.0028364208992570643,0.010457633063197136,0.0025816534180194144
1669803321.5238135,470,1669803321,523346933,imu_link,-0.0028386497870087624,0.01364574208855629,0.0011913880007341506
1669803321.5279152,471,1669803321,527595224,imu_link,-0.002999606542289257,0.013677022419869901,0.002984005957841873
1669803321.5333447,472,1669803321,532912518,imu_link,-0.006155695766210556,0.010132030583918096,-0.0004544784023892135
1669803321.538649,473,1669803321,538265300,imu_link,0.000593828852288425,0.011862068437039854,-0.00030175765277817845
1669803321.5438628,474,1669803321,543544674,imu_link,-0.0004559531225822866,0.011783838272094727,-0.0003285687125753612
1669803321.5484843,475,1669803321,547925651,imu_link,0.0011295145377516747,0.01565666310489178,0.004585792310535908
1669803321.5535429,476,1669803321,553194769,imu_link,-4.770347368321382e-05,0.01320466585457325,-0.0001646443852223456
1669803321.5587666,477,1669803321,558472930,imu_link,-0.0024878098629415035,0.019773835316300396,8.940969564719126e-06
1669803321.5633008,478,1669803321,562771393,imu_link,-0.004598523024469615,0.017669791355729107,-0.002241144422441721
1669803321.5683436,479,1669803321,568027411,imu_link,-0.002673293231055141,0.015285605564713478,-0.0015571893891319635
1669803321.5735097,480,1669803321,573265168,imu_link,-0.004026287235319614,0.019544349983334545,-0.00453821523115039
1669803321.5788417,481,1669803321,578566944,imu_link,-0.001524380990304053,0.013341011479496956,-0.0004425191727932543
1669803321.5835114,482,1669803321,582812906,imu_link,-0.0012390099000185728,0.01794697344303131,-0.0069215535186231145
1669803321.588419,483,1669803321,588107394,imu_link,-0.007272632326930762,0.020930875092744827,-0.008779010735452177
1669803321.5938306,484,1669803321,593403364,imu_link,-0.0052220779471099385,0.023936480283737183,-0.007326182909309864
1669803321.5990186,485,1669803321,598739697,imu_link,-0.001038695452734828,0.022116297855973247,-0.0043019745498895645
1669803321.6032813,486,1669803321,602975402,imu_link,-0.005444165784865619,0.021506821736693386,-0.01200888305902481
1669803321.6085744,487,1669803321,608288513,imu_link,-0.005667665973305702,0.020210457965731624,-0.013485530391335487
1669803321.6137633,488,1669803321,613545049,imu_link,-0.0063501885160803795,0.017554329708218578,-0.012858164496719839
1669803321.6180818,489,1669803321,617746139,imu_link,-0.006463378667831421,0.01544060464948416,-0.0200718492269516
1669803321.6238098,490,1669803321,623139458,imu_link,-0.003074871376156807,0.015799641609191895,-0.014957101084291937
1669803321.6289983,491,1669803321,628373028,imu_link,-0.00497027998790145,0.014586744830012321,-0.009255117736756803
1669803321.6338456,492,1669803321,633615617,imu_link,-0.00183228577952832,0.015784770250320435,-0.01713559776544571
1669803321.6385057,493,1669803321,637935434,imu_link,-0.005491011776030064,0.0139750586822629,-0.020334884524345398
1669803321.6442792,494,1669803321,643357460,imu_link,-0.004124662373214961,0.014689569361507894,-0.014412399381399155
1669803321.6485448,495,1669803321,647665687,imu_link,-0.00575037905946374,0.012958807870745659,-0.01021919120103121
1669803321.6538148,496,1669803321,653006952,imu_link,-0.0013173063052818181,0.010577570647001266,-0.01523793675005436
1669803321.6589162,497,1669803321,658374394,imu_link,-0.0030443230643868446,0.010644665919244291,-0.014913065358996391
1669803321.66325,498,1669803321,662741840,imu_link,-0.004624615889042617,0.008134520612657072,-0.013644995167851448
1669803321.6687515,499,1669803321,668032252,imu_link,-0.005769702605903149,0.005362985190004111,-0.01906900852918625
1669803321.6737094,500,1669803321,673318118,imu_link,-0.002691189292818308,0.006134083960205317,-0.016804771497845653
1669803321.6795979,501,1669803321,678784383,imu_link,-0.00530410883948207,0.006386604160070419,-0.010775777511298658
1669803321.6833994,502,1669803321,683069702,imu_link,-0.004809383302927017,0.005549178458750248,-0.014814729802310469
1669803321.688723,503,1669803321,688390690,imu_link,-0.00623166561126709,0.007938650436699392,-0.01818908005952835
1669803321.6940193,504,1669803321,693696574,imu_link,-0.0046901567839086064,0.0069402409717440605,-0.01420004665851593
1669803321.6981552,505,1669803321,697930911,imu_link,-0.0029056998901069164,0.002544359071180225,-0.01791119948029518
1669803321.7035306,506,1669803321,703282128,imu_link,-0.00478023523464799,0.0032842794898897414,-0.018481168895959854
1669803321.7089057,507,1669803321,708647581,imu_link,-0.00562969408929348,0.00447407877072692,-0.012518446892499924
1669803321.7133248,508,1669803321,712907675,imu_link,-0.004323586821556091,0.005587964784353972,-0.014498815871775152
1669803321.7185254,509,1669803321,718265253,imu_link,-0.0034361551515758038,0.007028915453702212,-0.013075020164251328
1669803321.7239408,510,1669803321,723675374,imu_link,-0.001772501738741994,0.005623688921332359,-0.004411497619003058
1669803321.7282462,511,1669803321,727932062,imu_link,-0.0027455615345388655,0.002828981727361679,-0.0056430608965456494
1669803321.733758,512,1669803321,733354447,imu_link,-0.006688367575407028,0.0009507260401733221,-0.007248683366924525
1669803321.7388446,513,1669803321,738602725,imu_link,-0.005488839466124774,0.00335502065718174,-0.009097152389585974
1669803321.7431636,514,1669803321,742853410,imu_link,-0.004172339104115963,0.009006250649690628,-0.001134009915404022
1669803321.748493,515,1669803321,748132136,imu_link,-0.003421332919970155,0.007010992616415024,-0.005118539091199637
1669803321.7537203,516,1669803321,753454911,imu_link,-0.003813930088654161,0.006332262419164181,-0.004156678915023804
1669803321.758024,517,1669803321,757717634,imu_link,-0.007602570578455925,0.005811457987874747,-0.0044398000463843346
1669803321.7638261,518,1669803321,763200654,imu_link,-0.010331687517464163,0.0043861507438123235,-0.014973457902669907
1669803321.7691512,519,1669803321,768574281,imu_link,-0.005870337598025799,0.004985171835869552,-0.012803817167878151
1669803321.7733603,520,1669803321,772862334,imu_link,-0.009535220451653005,0.007385038770735264,-0.006312154233455658
1669803321.7785807,521,1669803321,778199336,imu_link,-0.006944678258150817,0.008099513128399849,-0.009547193534672262
1669803321.7838967,522,1669803321,783607258,imu_link,-0.009574025869369507,0.006914862431585789,-0.015150747261941435
1669803321.7879815,523,1669803321,787800701,imu_link,-0.010496368631720543,0.005101395305246116,-0.009779654443264008
1669803321.7934232,524,1669803321,793057840,imu_link,-0.008760397322475912,0.0070043038576841354,-0.009195491671562195
1669803321.7986524,525,1669803321,798480347,imu_link,-0.010087355040013792,0.008629247546195984,-0.008157645352184774
1669803321.8032038,526,1669803321,802804804,imu_link,-0.010538840666413307,0.010047869756817818,-0.004815289285033942
1669803321.80867,527,1669803321,808261238,imu_link,-0.007016238756477833,0.009725247509777548,-0.003708086907863617
1669803321.8138285,528,1669803321,813486271,imu_link,-0.010956096462905409,0.00564828235656023,-0.008419880643486977
1669803321.8181143,529,1669803321,817827349,imu_link,-0.012718135491013527,0.004979997407644988,-0.005602819845080376
1669803321.8236167,530,1669803321,823180241,imu_link,-0.004491205792874099,0.0013873047428205611,-0.003240262158215046
1669803321.8288512,531,1669803321,828583895,imu_link,-0.0055082286708056935,-5.5867327318992466e-05,-0.0066108894534409055
1669803321.8331673,532,1669803321,832881142,imu_link,-0.007691999431699515,-0.0029697963036596775,-0.008958563208580017
1669803321.8388054,533,1669803321,838354683,imu_link,-0.0057712127454578885,-0.0039286985993385315,-0.005864355247467757
1669803321.844055,534,1669803321,843699397,imu_link,-0.005859144032001495,-0.0018961839377880096,-0.004027024377137423
1669803321.8483505,535,1669803321,847959369,imu_link,-0.0023730054963380103,-0.001863399287685752,-0.0016637110384181144
1669803321.8535926,536,1669803321,853373719,imu_link,-0.005915773566812278,-0.004815290682017803,0.0031642699614167213
1669803321.8580742,537,1669803321,857743548,imu_link,-0.004338469356298447,-0.005579000804573298,-0.002902741078287363
1669803321.863547,538,1669803321,863131962,imu_link,-0.0055320775136351585,-0.00501346867531538,-0.0008784346864558757
1669803321.8691163,539,1669803321,868550850,imu_link,-0.005035135429352523,-0.007116759195923805,0.006121408659964801
1669803321.8734407,540,1669803321,872778208,imu_link,-0.002516829874366522,-0.004552318248897792,0.008502588607370855
1669803321.8790038,541,1669803321,878248411,imu_link,-0.003624712815508247,-0.009219350293278694,0.007386500481516124
1669803321.8842888,542,1669803321,883660246,imu_link,-0.007116066291928291,-0.005898603238165379,0.0057794195599854
1669803321.8886905,543,1669803321,887987518,imu_link,-0.006088676396757365,-0.005914993584156036,0.006739014293998481
1669803321.893963,544,1669803321,893296230,imu_link,-0.0027395964134484534,-0.0022962605580687523,0.012288985773921013
1669803321.8939812,545,1669803321,893321380,imu_link,-0.005761495791375637,-0.005631898995488883,0.013435648754239082
1669803321.9036021,546,1669803321,902889052,imu_link,-0.004491216968744994,-0.007382023613899947,0.01451149769127369
1669803321.90836,547,1669803321,908066134,imu_link,-0.0031038813758641486,-0.010498587042093277,0.007956522516906263
1669803321.9139495,548,1669803321,913459078,imu_link,-0.004556805826723576,-0.007847680710256101,0.00848397519439459
1669803321.9139612,549,1669803321,913469637,imu_link,-0.005990248639136554,-0.005774219520390034,0.009553135372698309
1669803321.923192,550,1669803321,922897039,imu_link,-0.005674354732036591,-0.007371597923338413,0.014601654373109342
1669803321.9285083,551,1669803321,928219917,imu_link,-0.006098302546888591,-0.006519247777760029,0.008717185817658903
1669803321.933715,552,1669803321,933448607,imu_link,-0.00547991180792451,-0.010152174159884453,0.008247023448348045
1669803321.9338157,553,1669803321,933457201,imu_link,-0.001162276603281498,-0.0059477449394762525,0.010340696200728416
1669803321.943347,554,1669803321,942944821,imu_link,-0.005077593494206668,-0.004372772295027972,0.008568141609430313
1669803321.9484932,555,1669803321,948201056,imu_link,-0.002329764887690544,-0.00738423364236951,0.010306423529982567
1669803321.9540012,556,1669803321,953482253,imu_link,-0.006163906306028366,-0.008124840445816519,0.013672557659447195
1669803321.954006,557,1669803321,953490736,imu_link,-0.008512290194630623,-0.005055235233157874,0.006294232793152332
1669803321.9633772,558,1669803321,963169753,imu_link,-0.0059306961484253415,-0.007809664588421584,0.007969899103045464
1669803321.9688094,559,1669803321,968494611,imu_link,-0.005780175793915988,-0.008615121245384216,0.00834984239190817
1669803321.9733028,560,1669803321,972820011,imu_link,-0.012009597383439543,-0.004544129595160484,0.018022947013378143
1669803321.9733071,561,1669803321,972830244,imu_link,-0.011710057035088539,-0.008546526543796064,0.012849310413002968
1669803321.9837635,562,1669803321,983518429,imu_link,-0.010859981179237366,-0.006880602799355984,0.015642488375306133
1669803321.9879766,563,1669803321,987715609,imu_link,-0.010336915962398054,-0.005227347835898399,0.01561717037111521
1669803321.9934309,564,1669803321,993014780,imu_link,-0.011074533686041832,-0.0002511571801733226,0.01218766998499632
1669803321.9934373,565,1669803321,993026362,imu_link,-0.012318781577050688,-0.0019071940332651138,0.016763830557465557
1669803322.0040324,566,1669803322,3709192,imu_link,-0.010240827687084677,-0.005126012023538352,0.01728161796927452
1669803322.0041375,567,1669803322,3722356,imu_link,-0.012362743727862837,-0.002377517521381378,0.007759777363389731
1669803322.0136814,568,1669803322,13290159,imu_link,-0.009316212497651579,0.0008136555552482605,0.011805439367890358
1669803322.0136878,569,1669803322,13303268,imu_link,-0.008569651283323767,-0.00016093128942884505,0.018423797562718395
1669803322.0189898,570,1669803322,18661895,imu_link,-0.010822651907801628,0.003537475597113371,0.01733457483351231
1669803322.023348,571,1669803322,22862572,imu_link,-0.012281532399356367,0.003092770464718342,0.016565619036555294
1669803322.03427,572,1669803322,33796680,imu_link,-0.009504714980721474,-0.0033468522597104315,0.01373810973018408
1669803322.0343084,573,1669803322,33808415,imu_link,-0.012043135240674019,2.6034251277451407e-05,0.01270471140742302
1669803322.0381393,574,1669803322,37884302,imu_link,-0.01389305479824543,-0.000774080166593194,0.015908518806099895
1669803322.0433834,575,1669803322,43126391,imu_link,-0.009710382670164108,-0.0010296182008460166,0.01189705915749073
1669803322.0487442,576,1669803322,48448263,imu_link,-0.00806746818125248,-0.005774953868240119,0.011354695074260237
1669803322.0530672,577,1669803322,52868463,imu_link,-0.008865435607731344,-0.003124773968011141,0.005733238998800517
1669803322.058663,578,1669803322,58376406,imu_link,-0.005268322303891182,-0.0024087363854050636,0.009285661391913893
1669803322.0639641,579,1669803322,63649118,imu_link,-0.007310499437153339,-0.0036761632654815917,0.006339682266116142
1669803322.0681093,580,1669803322,67883898,imu_link,-0.009167945943772795,-0.003714852500706911,0.003939867950975895
1669803322.0734212,581,1669803322,73155642,imu_link,-0.0067010438069701195,-0.0024341132957488303,0.009098654612898827
1669803322.0787117,582,1669803322,78451068,imu_link,-0.006609448697417975,-0.00872608367353678,0.006983439438045025
1669803322.0840378,583,1669803322,83719484,imu_link,-0.008412441238760948,-0.0036455893423408274,3.2766452932264656e-05
1669803322.0883038,584,1669803322,87934084,imu_link,-0.0022314474917948246,-0.003241751110181213,0.0005938022513873876
1669803322.0938098,585,1669803322,93324681,imu_link,-0.0025145311374217276,-0.0044882409274578094,0.010067976079881193
1669803322.0993502,586,1669803322,98764594,imu_link,-0.007345502730458976,-0.0067763165570795545,0.00440406147390604
1669803322.1038108,587,1669803322,103062165,imu_link,-0.008510768413543701,-0.008105515502393247,-0.004153707064688206
1669803322.1086178,588,1669803322,108258407,imu_link,-0.006711484398692847,-0.006936484947800636,0.001354540465399623
1669803322.113876,589,1669803322,113532468,imu_link,-0.00922533590346575,-0.004079889506101608,0.001215899013914168
1669803322.1191807,590,1669803322,118796143,imu_link,-0.008324552327394485,-0.006248762831091881,0.003156090853735805
1669803322.1234744,591,1669803322,123104514,imu_link,-0.0094666900113225,-0.005362926051020622,0.004603755194693805
1669803322.1294084,592,1669803322,128575970,imu_link,-0.007159285712987185,-0.008774537593126297,0.004193917848169804
1669803322.133826,593,1669803322,132899459,imu_link,-0.008494406007230284,-0.01002475991845131,0.003618739312514663
1669803322.1389425,594,1669803322,138274894,imu_link,-0.011308507062494757,-0.009977801702916624,0.0030182283371686935
1669803322.1444972,595,1669803322,143670847,imu_link,-0.011455993168056013,-0.009871277958154678,0.008843856863677503
1669803322.1487288,596,1669803322,148004878,imu_link,-0.014410884119570257,-0.009774457663297653,0.003919015638530254
1669803322.1540616,597,1669803322,153577885,imu_link,-0.013130933977663519,-0.011177325621247292,0.0010572328465059402
1669803322.1582398,598,1669803322,157836586,imu_link,-0.01144260447472334,-0.007723995950073005,0.0036016488447785378
1669803322.1635537,599,1669803322,163214190,imu_link,-0.013060144148766996,-0.007744845934212208,0.006713719572871924
1669803322.168799,600,1669803322,168565142,imu_link,-0.015176049433648588,-0.008523533120751381,0.007162979803979397
1669803322.1731267,601,1669803322,172791297,imu_link,-0.014287924394011497,-0.009179160930216314,0.009716343134641647
1669803322.1784184,602,1669803322,178134012,imu_link,-0.014757340773940086,-0.010707315057516098,0.00816949922591448
1669803322.1837757,603,1669803322,183539649,imu_link,-0.0125192292034626,-0.011727956123650076,0.009311717003583908
1669803322.1890159,604,1669803322,188748260,imu_link,-0.013575727120041847,-0.009093402884900572,0.014261907897889616
1669803322.193339,605,1669803322,193007569,imu_link,-0.012415660545229912,-0.012457347474992277,0.015519572421908379
1669803322.1985426,606,1669803322,198304056,imu_link,-0.013086250051856041,-0.011569980531930923,0.013638262636959554
1669803322.2039149,607,1669803322,203659862,imu_link,-0.015143314376473427,-0.006191427353769542,0.010981405153870583
1669803322.2082283,608,1669803322,207847347,imu_link,-0.013060135766863823,-0.01237092260271311,0.015005475841462614
1669803322.2133029,609,1669803322,213087245,imu_link,-0.01253560185432434,-0.01065207924693823,0.015623882412910461
1669803322.2187378,610,1669803322,218339356,imu_link,-0.014366229996085167,-0.0115260761231184,0.013801413588225843
1669803322.224047,611,1669803322,223643207,imu_link,-0.013003570958971977,-0.010915097780525686,0.01719142124056816
1669803322.2283442,612,1669803322,227885374,imu_link,-0.013329153880476952,-0.006470135878771544,0.018112299963831905
1669803322.233567,613,1669803322,233133268,imu_link,-0.011713115498423576,-0.013540658168494703,0.015223011374473572
1669803322.2386243,614,1669803322,238338752,imu_link,-0.012104169465601446,-0.009734173305332662,0.019153986126184464
1669803322.2439928,615,1669803322,243726770,imu_link,-0.011309189721941948,-0.009623966179788114,0.019183754920959473
1669803322.2483246,616,1669803322,248001686,imu_link,-0.013709065504372122,-0.010535012930631638,0.019664376974105835
1669803322.2535732,617,1669803322,253290734,imu_link,-0.010507466271519661,-0.009065120480954649,0.016268398612737656
1669803322.2590861,618,1669803322,258659008,imu_link,-0.012789717875421049,-0.01068707648664713,0.016009792685508728
1669803322.2636833,619,1669803322,263001908,imu_link,-0.009953969158232214,-0.008314857259392738,0.016237800940871242
1669803322.2691984,620,1669803322,268432347,imu_link,-0.007851454429328443,-0.010177478194236755,0.017470117658376694
1669803322.273182,621,1669803322,272912394,imu_link,-0.010877777822315695,-0.012619050219655037,0.01669903658330441
1669803322.2785742,622,1669803322,278234859,imu_link,-0.011202668771147728,-0.00946970097720623,0.014407941140234472
1669803322.283862,623,1669803322,283600997,imu_link,-0.009203727357089521,-0.007916910573840141,0.015214114449918272
1669803322.2883723,624,1669803322,287971630,imu_link,-0.006223447155207396,-0.010216288268566132,0.016505993902683258
1669803322.2943382,625,1669803322,293538800,imu_link,-0.007313509937375785,-0.00914115272462368,0.014980857260525228
1669803322.2987185,626,1669803322,297899668,imu_link,-0.012701809406280518,-0.0136577058583498,0.013752927072346212
1669803322.3041492,627,1669803322,303419058,imu_link,-0.007325385231524707,-0.012148195877671242,0.012046094052493574
1669803322.3094132,628,1669803322,308802213,imu_link,-0.006356864701956511,-0.013582400977611542,0.01228824071586132
1669803322.3138359,629,1669803322,313103100,imu_link,-0.0035748395603150134,-0.009272972121834755,0.015150015242397787
1669803322.3194542,630,1669803322,318587081,imu_link,-0.00946442037820816,-0.00782684050500393,0.014537609182298185
1669803322.3238118,631,1669803322,323115442,imu_link,-0.004639471415430308,-0.0109969861805439,0.015691721811890606
1669803322.3292718,632,1669803322,328580599,imu_link,-0.001978859305381775,-0.006543831434100867,0.010522468946874143
1669803322.3336086,633,1669803322,332946294,imu_link,-0.0056698485277593145,-0.008355867117643356,0.007063137833029033
1669803322.338984,634,1669803322,338390010,imu_link,-0.002363327192142606,-0.00884381774812937,0.0070855263620615005
1669803322.3436306,635,1669803322,342902722,imu_link,-0.005109661724418403,-0.005404612049460411,0.010883803479373457
1669803322.348983,636,1669803322,348348023,imu_link,-0.0038944329135119915,-0.0025868711527436976,0.00801010522991419
1669803322.3545284,637,1669803322,353785576,imu_link,-0.002586804796010256,-0.0011704816715791824,0.009813915938138962
1669803322.3589113,638,1669803322,358146772,imu_link,0.0009797654347494247,-0.0032119408715516333,0.005096198059618473
1669803322.3638604,639,1669803322,363499870,imu_link,-0.0056423391215503224,-0.0017121245618909597,0.007073576096445323
1669803322.368069,640,1669803322,367850003,imu_link,-0.0058181541971862325,-0.0012673456221818924,0.004679715260863304
1669803322.3735788,641,1669803322,373206790,imu_link,-0.002564470516517759,-0.0020437263883650303,0.007607788313180209
1669803322.3790686,642,1669803322,378573545,imu_link,-0.005974590312689544,-0.0037565997336059813,0.00414404459297657
1669803322.3833861,643,1669803322,382874021,imu_link,-0.0022895624861121178,-0.004212553147226573,0.00240505812689662
1669803322.3884742,644,1669803322,388106456,imu_link,-0.0021234436426311736,-0.003069652710109949,0.007435668259859085
1669803322.394402,645,1669803322,393652143,imu_link,0.0003405103052500636,-0.00026002380764111876,0.004084407817572356
1669803322.3986998,646,1669803322,397975548,imu_link,-0.005345785059034824,-0.002364827785640955,0.003867597552016378
1669803322.4041743,647,1669803322,403501152,imu_link,-0.006110216490924358,-0.0004142793768551201,0.0022471025586128235
1669803322.4104998,648,1669803322,409863820,imu_link,-0.009990479797124863,-0.0020325279328972106,0.001828374224714935
1669803322.4135993,649,1669803322,413071690,imu_link,-0.006172807887196541,0.000580407853703946,0.0021882313303649426
1669803322.4188404,650,1669803322,418379845,imu_link,-0.004104527179151774,-0.0012844594893977048,0.0023029842413961887
1669803322.4239414,651,1669803322,423694966,imu_link,-0.0065430887043476105,-0.0006429794593714179,0.0047072917222976685
1669803322.4280918,652,1669803322,427898988,imu_link,-0.005420295055955649,-0.0012494665570557117,-0.0005848914152011275
1669803322.433434,653,1669803322,433200400,imu_link,-0.010323527269065382,-0.0017486463766545057,0.001094496692530811
1669803322.4386537,654,1669803322,438400034,imu_link,-0.005491089541465045,0.0015385347651317718,0.0059962198138237
1669803322.4430826,655,1669803322,442755265,imu_link,-0.0073820482939481735,0.0004388340457808227,0.004237868823111057
1669803322.4485357,656,1669803322,448071611,imu_link,-0.004822765477001667,-0.0007420757901854814,0.0035844680387526755
1669803322.4536316,657,1669803322,453313449,imu_link,-0.003204495180398226,-0.0010162609396502378,-0.002156196627765894
1669803322.4588509,658,1669803322,458590360,imu_link,-0.002940001199021936,-0.0033661678899079566,-0.0028707128949463367
1669803322.462993,659,1669803322,462778255,imu_link,-0.002343957079574466,0.001025937031954527,-0.0042267157696187505
1669803322.4682071,660,1669803322,467993002,imu_link,-0.00595150562003255,-0.00010505081445444375,-0.0062681883573532104
1669803322.473515,661,1669803322,473245006,imu_link,-0.00505222985520959,-0.0017464507836848497,-0.011179595254361631
1669803322.478981,662,1669803322,478641522,imu_link,-0.0008284884388558568,-0.003991334233433009,-0.011486541479825974
1669803322.4831529,663,1669803322,482925984,imu_link,0.0008687563240528107,-0.002598760416731239,-0.006042419001460075
1669803322.488608,664,1669803322,488284281,imu_link,-0.0019408670486882331,-0.0028118351474404335,-0.008503355085849762
1669803322.4938605,665,1669803322,493493989,imu_link,-0.001322475029155612,-0.0031873534899204974,-0.007480386644601822
1669803322.498016,666,1669803322,497808389,imu_link,-0.002367045963183046,-0.006425407249480487,-0.004929271526634693
1669803322.5033107,667,1669803322,503091584,imu_link,-0.0015042525483295324,-0.00577496737241745,-0.008518983609974386
1669803322.5088224,668,1669803322,508435586,imu_link,0.005950813181698322,-0.0041574263013899335,-0.00993830990046263
1669803322.5136814,669,1669803322,512897715,imu_link,-0.0006728086154907942,-0.00665488699451089,-0.0057711852714419365
1669803322.5192163,670,1669803322,518359138,imu_link,-5.815713666379452e-05,-0.008298439905047417,-0.010744498111307623
1669803322.5245202,671,1669803322,523787806,imu_link,-0.0031463860068470244,-0.009971806779503822,-0.013725497759878637
1669803322.5290387,672,1669803322,528199592,imu_link,-0.002499648369848728,-0.006222762633115054,-0.015503157861530783
1669803322.5345492,673,1669803322,533768437,imu_link,-0.0022277398966252804,-0.004707249347120524,-0.016102198511362076
1669803322.5385423,674,1669803322,538032147,imu_link,0.001636220025829971,-0.0013753861421719196,-0.014241030439734459
1669803322.543956,675,1669803322,543482191,imu_link,0.001480496721342206,-0.007926675491034986,-0.01693069562315941
1669803322.5482218,676,1669803322,547743816,imu_link,0.00028311426285654306,-0.006637014914304019,-0.01973955519497395
1669803322.553404,677,1669803322,553080724,imu_link,-0.003069599624723196,-0.006429073866456748,-0.016150642186403275
1669803322.5585723,678,1669803322,558308563,imu_link,-0.003354200627654791,-0.005434437654912472,-0.015026348643004896
1669803322.5637674,679,1669803322,563622874,imu_link,-0.004236393608152866,-0.001417104038409889,-0.01320764608681202
1669803322.5680647,680,1669803322,567910685,imu_link,-0.0011272624833509328,0.0014149127528071404,-0.012812759727239609
1669803322.5734391,681,1669803322,573115541,imu_link,-0.0015221403446048498,0.002401378704234958,-0.017860524356365204
1669803322.5789135,682,1669803322,578440995,imu_link,-0.002277748426422477,-0.001290442771278322,-0.01902802661061287
1669803322.5839112,683,1669803322,583675950,imu_link,-0.004188749007880688,0.0007749104988761247,-0.01773088052868843
1669803322.5881073,684,1669803322,587874995,imu_link,-0.005224315449595451,0.0017733516870066526,-0.024511666968464855
1669803322.5934389,685,1669803322,593127446,imu_link,-0.0026695446576923136,-4.6193497837521136e-05,-0.02081692405045033
1669803322.598922,686,1669803322,598554604,imu_link,-0.0019341519800946119,-0.0019304872257635,-0.017563994973897934
1669803322.6030571,687,1669803322,602842217,imu_link,8.041614637477325e-05,-0.0008284951327368617,-0.017086418345570568
1669803322.6084478,688,1669803322,608110456,imu_link,-0.00484433537349105,0.002044405322521925,-0.02099425718188286
1669803322.6142263,689,1669803322,613582401,imu_link,-0.003941300790756942,-0.0018634030129760504,-0.015607490204274656
1669803322.6185575,690,1669803322,617916776,imu_link,-0.004548567347228527,0.0013873525895178318,-0.014434755779802801
1669803322.6240475,691,1669803322,623411631,imu_link,-0.005268447566777469,0.0034600896760821342,-0.02043689973652363
1669803322.6284988,692,1669803322,627883770,imu_link,-0.00246611493639648,0.0006071313982829452,-0.01998097449541092
1669803322.6340015,693,1669803322,633278535,imu_link,-0.004078407771885395,0.0011928250314667823,-0.018534816801548004
1669803322.6393924,694,1669803322,638710880,imu_link,-0.009657506830990316,-0.002555577782914043,-0.021067973226308823
1669803322.643749,695,1669803322,642997833,imu_link,-0.0056221685372293,0.004077001474797726,-0.014255200512707235
1669803322.6489444,696,1669803322,648334859,imu_link,-0.007721745874732734,0.0024571591056883335,-0.014929499477148056
1669803322.6556618,697,1669803322,654925900,imu_link,-0.0064917067065835,0.0026300156023353343,-0.020472701638936996
1669803322.6585803,698,1669803322,658110552,imu_link,-0.0054560499265789986,-0.0004709270433522761,-0.015396629460155966
1669803322.663827,699,1669803322,663446872,imu_link,-0.001897619920782745,0.0025652251206338406,-0.012058774940669538
1669803322.6691,700,1669803322,668723200,imu_link,-0.003865353530272842,0.00037697935476899147,-0.009889159351587296
1669803322.6732562,701,1669803322,672948533,imu_link,-0.00017136003589257598,0.0014372350415214898,-0.012103468179702759
1669803322.6787126,702,1669803322,678313925,imu_link,-0.0048927972093224525,-0.0029355157166719437,-0.012755398638546469
1669803322.683799,703,1669803322,683529961,imu_link,-0.004219244234263897,-0.003055480541661382,-0.012438006699085236
1669803322.6901262,704,1669803322,689921583,imu_link,-0.0008098629186861218,-0.0035687750205397606,-0.010754186660051346
1669803322.6931589,705,1669803322,692956980,imu_link,-0.005786862690001727,-0.003916026093065739,-0.011056664399802687
1669803322.6985192,706,1669803322,698175149,imu_link,-0.001245714956894517,-0.003033895045518875,-0.011777876876294615
1669803322.7037897,707,1669803322,703427164,imu_link,-0.00022204029664862904,-0.005371080711483955,-0.014001150615513326
1669803322.7092392,708,1669803322,708783492,imu_link,-0.0017218581633642318,-0.004135794937610626,-0.01216382160782814
1669803322.713471,709,1669803322,713021534,imu_link,-0.0032462321687489752,-0.003127012401819229,-0.008732073940336706
1669803322.718524,710,1669803322,718289233,imu_link,-0.0024371158797293906,-0.005531316157430411,-0.007656204514205456
1669803322.7237313,711,1669803322,723530466,imu_link,0.000352376198861748,-0.0063322107307612905,-0.013398399576544762
1669803322.728557,712,1669803322,727906304,imu_link,-0.000537903339136392,-0.004311615601181984,-0.01220257394015789
1669803322.734118,713,1669803322,733367571,imu_link,-0.002037671627476812,-0.0033088186755776405,-0.01280904468148947
1669803322.738597,714,1669803322,737856795,imu_link,-0.00027714844327419996,-0.0009827015455812216,-0.009211902506649496
1669803322.7439268,715,1669803322,743199259,imu_link,0.0006511918618343772,-2.9076647479087114e-05,-0.009241699241101744
1669803322.74928,716,1669803322,748554202,imu_link,-0.004775119014084339,0.003870558692142368,-0.009943530894815924
1669803322.7534206,717,1669803322,752916970,imu_link,-0.0040717292577028275,0.004651356022804976,-0.013654695823788643
1669803322.7593124,718,1669803322,758419415,imu_link,-0.0013992264866828918,0.003324453718960285,-0.008577105589210989
1669803322.7634265,719,1669803322,762854555,imu_link,-0.004388430155813694,0.0046469378285110005,-0.012180937454104424
1669803322.7690496,720,1669803322,768343684,imu_link,-0.0045709433034062386,0.009545668028295042,-0.012602667324244978
1669803322.7746356,721,1669803322,773725342,imu_link,-0.004091079812496901,0.008394582197070122,-0.013505672104656698
1669803322.7787697,722,1669803322,778076380,imu_link,-0.00699162157252431,0.007148033473640681,-0.013056429103016853
1669803322.784717,723,1669803322,783743359,imu_link,-0.0071748727932572365,0.008587584830820562,-0.018011774867773056
1669803322.788736,724,1669803322,788097048,imu_link,-0.004597770515829326,0.012253215536475182,-0.015114998444914818
1669803322.7938123,725,1669803322,793432232,imu_link,-0.0042885453440248975,0.01164894737303257,-0.013835021294653417
1669803322.7990894,726,1669803322,798768385,imu_link,-0.003393859369680286,0.012674155645072462,-0.025617331266403198
1669803322.803374,727,1669803322,803026139,imu_link,-0.006615359336137772,0.007996781729161741,-0.029604870826005936
1669803322.8089957,728,1669803322,808395452,imu_link,-0.003224605694413185,0.010289921425282957,-0.025023555383086208
1669803322.8139024,729,1669803322,813687750,imu_link,-0.008191908709704878,0.007751596160233021,-0.02489760704338551
1669803322.8181946,730,1669803322,817893646,imu_link,-0.005523775704205036,0.010782515630126,-0.03241077437996865
1669803322.823713,731,1669803322,823244027,imu_link,-0.004126088693737984,0.01429323758929968,-0.029262889176607132
1669803322.8290877,732,1669803322,828727490,imu_link,-0.005525317508727313,0.014337209984660149,-0.027557440102100372
1669803322.8332765,733,1669803322,832940037,imu_link,-0.004029185045510531,0.013921402394771576,-0.0228241290897131
1669803322.8387613,734,1669803322,838348922,imu_link,-0.0031240792013704777,0.012258464470505714,-0.024533996358513836
1669803322.8452413,735,1669803322,844967651,imu_link,-0.0013641207478940487,0.015914479270577434,-0.01770031452178955
1669803322.8484492,736,1669803322,848145143,imu_link,-0.00297727226279676,0.016300372779369354,-0.01920163631439209
1669803322.8540874,737,1669803322,853786669,imu_link,-0.0031649509910494093,0.018498264253139496,-0.01582732237875462
1669803322.8583632,738,1669803322,858106236,imu_link,-0.0025823605246841908,0.019513819366693497,-0.012462583370506765
1669803322.8639474,739,1669803322,863534210,imu_link,-0.0004203121643513441,0.02200153656303883,-0.012967033311724663
1669803322.868128,740,1669803322,867804381,imu_link,-0.0038034871686249976,0.02653299644589424,-0.008189739659428596
1669803322.8734674,741,1669803322,873117561,imu_link,-0.0018298261566087606,0.022470947355031967,-0.007869320921599867
1669803322.878763,742,1669803322,878478454,imu_link,0.003220052691176534,0.023365048691630367,-0.009636543691158295
1669803322.8830447,743,1669803322,882780539,imu_link,-0.0005677028093487024,0.02827049978077412,-0.007838685065507889
1669803322.8890765,744,1669803322,888325490,imu_link,0.0017278192099183798,0.029168279841542247,7.291283964150353e-06
1669803322.8934765,745,1669803322,892804583,imu_link,0.0009194493177346886,0.02747252583503723,0.0006370863993652166
1669803322.8991868,746,1669803322,898395501,imu_link,0.0013179968809708955,0.03105402179062367,-0.00024144421331584454
1669803322.9033048,747,1669803322,902754574,imu_link,0.00399641739204526,0.030332069844007492,0.001769478782080114
1669803322.908818,748,1669803322,908226971,imu_link,0.002507230499759317,0.03324894607067108,0.0038006510585546494
1669803322.9143736,749,1669803322,913665530,imu_link,0.005142443347722293,0.034875430166721344,0.004640132654458285
1669803322.9185178,750,1669803322,917911634,imu_link,0.0038213967345654964,0.03198310732841492,0.003445889567956329
1669803322.9237702,751,1669803322,923287403,imu_link,0.005204284097999335,0.03530605137348175,0.009028636850416662
1669803322.9291627,752,1669803322,928722710,imu_link,0.006375502794981003,0.03618597611784936,0.0031717561651021246
1669803322.9333804,753,1669803322,932944751,imu_link,0.006584715563803912,0.03763290494680405,0.0007800468592904509
1669803322.9385915,754,1669803322,938280143,imu_link,0.00509110325947404,0.04300400242209435,0.006452168338000774
1669803322.9438684,755,1669803322,943611960,imu_link,0.004354842007160187,0.041860360652208335,0.004688618704676628
